$GPGGA,063321.803,5234.906,N,01318.184,E,1,12,1.0,0.0,M,0.0,M,,*69
$GPGSA,A,3,01,02,03,04,05,06,07,08,09,10,11,12,1.0,1.0,1.0*30
$GPRMC,063321.803,A,5234.906,N,01318.184,E,4948.6,043.5,171118,000.0,W*47
$GPGGA,063322.803,5236.095,N,01319.317,E,1,12,1.0,0.0,M,0.0,M,,*62
$GPGSA,A,3,01,02,03,04,05,06,07,08,09,10,11,12,1.0,1.0,1.0*30
$GPRMC,063322.803,A,5236.095,N,01319.317,E,5299.3,068.0,171118,000.0,W*43
$GPGGA,063323.803,5236.908,N,01321.336,E,1,12,1.0,0.0,M,0.0,M,,*66
$GPGSA,A,3,01,02,03,04,05,06,07,08,09,10,11,12,1.0,1.0,1.0*30
$GPRMC,063323.803,A,5236.908,N,01321.336,E,7481.1,084.5,171118,000.0,W*4F
$GPGGA,063324.803,5237.234,N,01324.714,E,1,12,1.0,0.0,M,0.0,M,,*65
$GPGSA,A,3,01,02,03,04,05,06,07,08,09,10,11,12,1.0,1.0,1.0*30
$GPRMC,063324.803,A,5237.234,N,01324.714,E,8517.7,093.7,171118,000.0,W*4F
$GPGGA,063325.803,5236.983,N,01328.587,E,1,12,1.0,0.0,M,0.0,M,,*66
$GPGSA,A,3,01,02,03,04,05,06,07,08,09,10,11,12,1.0,1.0,1.0*30
$GPRMC,063325.803,A,5236.983,N,01328.587,E,7541.6,098.1,171118,000.0,W*4C
$GPGGA,063326.803,5236.508,N,01331.945,E,1,12,1.0,0.0,M,0.0,M,,*60
$GPGSA,A,3,01,02,03,04,05,06,07,08,09,10,11,12,1.0,1.0,1.0*30
$GPRMC,063326.803,A,5236.508,N,01331.945,E,8033.2,115.2,171118,000.0,W*46
$GPGGA,063327.803,5235.144,N,01334.849,E,1,12,1.0,0.0,M,0.0,M,,*66
$GPGSA,A,3,01,02,03,04,05,06,07,08,09,10,11,12,1.0,1.0,1.0*30
$GPRMC,063327.803,A,5235.144,N,01334.849,E,7403.1,150.3,171118,000.0,W*4B
$GPGGA,063328.803,5233.204,N,01335.961,E,1,12,1.0,0.0,M,0.0,M,,*62
$GPGSA,A,3,01,02,03,04,05,06,07,08,09,10,11,12,1.0,1.0,1.0*30
$GPRMC,063328.803,A,5233.204,N,01335.961,E,11402.9,186.3,171118,000.0,W*7A
$GPGGA,063329.803,5230.045,N,01335.611,E,1,12,1.0,0.0,M,0.0,M,,*6F
$GPGSA,A,3,01,02,03,04,05,06,07,08,09,10,11,12,1.0,1.0,1.0*30
$GPRMC,063329.803,A,5230.045,N,01335.611,E,7202.4,208.9,171118,000.0,W*44
$GPGGA,063330.803,5228.151,N,01334.561,E,1,12,1.0,0.0,M,0.0,M,,*6F
$GPGSA,A,3,01,02,03,04,05,06,07,08,09,10,11,12,1.0,1.0,1.0*30
$GPRMC,063330.803,A,5228.151,N,01334.561,E,5986.2,218.5,171118,000.0,W*4A
$GPGGA,063331.803,5226.658,N,01333.366,E,1,12,1.0,0.0,M,0.0,M,,*68
$GPGSA,A,3,01,02,03,04,05,06,07,08,09,10,11,12,1.0,1.0,1.0*30
$GPRMC,063331.803,A,5226.658,N,01333.366,E,6523.9,245.1,171118,000.0,W*4A
$GPGGA,063332.803,5225.565,N,01330.997,E,1,12,1.0,0.0,M,0.0,M,,*62
$GPGSA,A,3,01,02,03,04,05,06,07,08,09,10,11,12,1.0,1.0,1.0*30
$GPRMC,063332.803,A,5225.565,N,01330.997,E,7648.6,269.4,171118,000.0,W*4B
$GPGGA,063333.803,5225.527,N,01327.516,E,1,12,1.0,0.0,M,0.0,M,,*66
$GPGSA,A,3,01,02,03,04,05,06,07,08,09,10,11,12,1.0,1.0,1.0*30
$GPRMC,063333.803,A,5225.527,N,01327.516,E,7245.2,271.3,171118,000.0,W*4C
$GPGGA,063334.803,5225.603,N,01324.220,E,1,12,1.0,0.0,M,0.0,M,,*65
$GPGSA,A,3,01,02,03,04,05,06,07,08,09,10,11,12,1.0,1.0,1.0*30
$GPRMC,063334.803,A,5225.603,N,01324.220,E,7507.4,276.6,171118,000.0,W*4A
$GPGGA,063335.803,5225.992,N,01320.862,E,1,12,1.0,0.0,M,0.0,M,,*6B
$GPGSA,A,3,01,02,03,04,05,06,07,08,09,10,11,12,1.0,1.0,1.0*30
$GPRMC,063335.803,A,5225.992,N,01320.862,E,5659.0,292.9,171118,000.0,W*4F
$GPGGA,063336.803,5226.884,N,01318.740,E,1,12,1.0,0.0,M,0.0,M,,*69
$GPGSA,A,3,01,02,03,04,05,06,07,08,09,10,11,12,1.0,1.0,1.0*30
$GPRMC,063336.803,A,5226.884,N,01318.740,E,5222.0,317.8,171118,000.0,W*48
$GPGGA,063337.803,5228.151,N,01317.587,E,1,12,1.0,0.0,M,0.0,M,,*61
$GPGSA,A,3,01,02,03,04,05,06,07,08,09,10,11,12,1.0,1.0,1.0*30
$GPRMC,063337.803,A,5228.151,N,01317.587,E,7581.0,351.1,171118,000.0,W*47
$GPGGA,063338.803,5230.246,N,01317.257,E,1,12,1.0,0.0,M,0.0,M,,*68
$GPGSA,A,3,01,02,03,04,05,06,07,08,09,10,11,12,1.0,1.0,1.0*30
$GPRMC,063338.803,A,5230.246,N,01317.257,E,5482.7,352.3,171118,000.0,W*48
$GPGGA,063339.803,5231.763,N,01317.051,E,1,12,1.0,0.0,M,0.0,M,,*6E
$GPGSA,A,3,01,02,03,04,05,06,07,08,09,10,11,12,1.0,1.0,1.0*30
$GPRMC,063339.803,A,5231.763,N,01317.051,E,4809.8,009.6,171118,000.0,W*47
$GPGGA,063340.803,5233.091,N,01317.278,E,1,12,1.0,0.0,M,0.0,M,,*61
$GPGSA,A,3,01,02,03,04,05,06,07,08,09,10,11,12,1.0,1.0,1.0*30
$GPRMC,063340.803,A,5233.091,N,01317.278,E,2921.7,021.3,171118,000.0,W*45
$GPGGA,063341.803,5233.880,N,01317.587,E,1,12,1.0,0.0,M,0.0,M,,*6F
$GPGSA,A,3,01,02,03,04,05,06,07,08,09,10,11,12,1.0,1.0,1.0*30
$GPRMC,063341.803,A,5233.880,N,01317.587,E,4131.5,050.1,171118,000.0,W*42
$GPGGA,063342.803,5234.806,N,01318.699,E,1,12,1.0,0.0,M,0.0,M,,*66
$GPGSA,A,3,01,02,03,04,05,06,07,08,09,10,11,12,1.0,1.0,1.0*30
$GPRMC,063342.803,A,5234.806,N,01318.699,E,4627.8,049.0,171118,000.0,W*4F
$GPGGA,063343.803,5235.858,N,01319.915,E,1,12,1.0,0.0,M,0.0,M,,*67
$GPGSA,A,3,01,02,03,04,05,06,07,08,09,10,11,12,1.0,1.0,1.0*30
$GPRMC,063343.803,A,5235.858,N,01319.915,E,4774.9,067.8,171118,000.0,W*4C
$GPGGA,063344.803,5236.596,N,01321.727,E,1,12,1.0,0.0,M,0.0,M,,*68
$GPGSA,A,3,01,02,03,04,05,06,07,08,09,10,11,12,1.0,1.0,1.0*30
$GPRMC,063344.803,A,5236.596,N,01321.727,E,6609.0,086.7,171118,000.0,W*43
$GPGGA,063345.803,5236.771,N,01324.735,E,1,12,1.0,0.0,M,0.0,M,,*64
$GPGSA,A,3,01,02,03,04,05,06,07,08,09,10,11,12,1.0,1.0,1.0*30
$GPRMC,063345.803,A,5236.771,N,01324.735,E,3932.8,092.8,171118,000.0,W*4F
$GPGGA,063346.803,5236.683,N,01326.527,E,1,12,1.0,0.0,M,0.0,M,,*68
$GPGSA,A,3,01,02,03,04,05,06,07,08,09,10,11,12,1.0,1.0,1.0*30
$GPRMC,063346.803,A,5236.683,N,01326.527,E,4320.8,094.8,171118,000.0,W*4B
$GPGGA,063347.803,5236.521,N,01328.484,E,1,12,1.0,0.0,M,0.0,M,,*64
$GPGSA,A,3,01,02,03,04,05,06,07,08,09,10,11,12,1.0,1.0,1.0*30
$GPRMC,063347.803,A,5236.521,N,01328.484,E,3290.0,098.3,171118,000.0,W*45
$GPGGA,063348.803,5236.308,N,01329.946,E,1,12,1.0,0.0,M,0.0,M,,*64
$GPGSA,A,3,01,02,03,04,05,06,07,08,09,10,11,12,1.0,1.0,1.0*30
$GPRMC,063348.803,A,5236.308,N,01329.946,E,3178.2,101.3,171118,000.0,W*43
$GPGGA,063349.803,5236.033,N,01331.327,E,1,12,1.0,0.0,M,0.0,M,,*6A
$GPGSA,A,3,01,02,03,04,05,06,07,08,09,10,11,12,1.0,1.0,1.0*30
$GPRMC,063349.803,A,5236.033,N,01331.327,E,4329.2,110.4,171118,000.0,W*4B
$GPGGA,063350.803,5235.407,N,01333.016,E,1,12,1.0,0.0,M,0.0,M,,*61
$GPGSA,A,3,01,02,03,04,05,06,07,08,09,10,11,12,1.0,1.0,1.0*30
$GPRMC,063350.803,A,5235.407,N,01333.016,E,3096.6,124.1,171118,000.0,W*46
$GPGGA,063351.803,5234.769,N,01333.963,E,1,12,1.0,0.0,M,0.0,M,,*61
$GPGSA,A,3,01,02,03,04,05,06,07,08,09,10,11,12,1.0,1.0,1.0*30
$GPRMC,063351.803,A,5234.769,N,01333.963,E,3438.6,153.7,171118,000.0,W*40
$GPGGA,063352.803,5233.855,N,01334.417,E,1,12,1.0,0.0,M,0.0,M,,*6C
$GPGSA,A,3,01,02,03,04,05,06,07,08,09,10,11,12,1.0,1.0,1.0*30
$GPRMC,063352.803,A,5233.855,N,01334.417,E,3074.8,157.1,171118,000.0,W*4D
$GPGGA,063353.803,5233.028,N,01334.767,E,1,12,1.0,0.0,M,0.0,M,,*6B
$GPGSA,A,3,01,02,03,04,05,06,07,08,09,10,11,12,1.0,1.0,1.0*30
$GPRMC,063353.803,A,5233.028,N,01334.767,E,3440.6,172.6,171118,000.0,W*47
$GPGGA,063354.803,5232.076,N,01334.890,E,1,12,1.0,0.0,M,0.0,M,,*61
$GPGSA,A,3,01,02,03,04,05,06,07,08,09,10,11,12,1.0,1.0,1.0*30
$GPRMC,063354.803,A,5232.076,N,01334.890,E,4786.2,179.1,171118,000.0,W*4B
$GPGGA,063355.803,5230.748,N,01334.911,E,1,12,1.0,0.0,M,0.0,M,,*60
$GPGSA,A,3,01,02,03,04,05,06,07,08,09,10,11,12,1.0,1.0,1.0*30
$GPRMC,063355.803,A,5230.748,N,01334.911,E,3194.0,193.2,171118,000.0,W*4D
$GPGGA,063356.803,5229.870,N,01334.705,E,1,12,1.0,0.0,M,0.0,M,,*64
$GPGSA,A,3,01,02,03,04,05,06,07,08,09,10,11,12,1.0,1.0,1.0*30
$GPRMC,063356.803,A,5229.870,N,01334.705,E,2950.8,198.4,171118,000.0,W*4D
$GPGGA,063357.803,5229.067,N,01334.437,E,1,12,1.0,0.0,M,0.0,M,,*69
$GPGSA,A,3,01,02,03,04,05,06,07,08,09,10,11,12,1.0,1.0,1.0*30
$GPRMC,063357.803,A,5229.067,N,01334.437,E,2444.4,210.0,171118,000.0,W*43
$GPGGA,063358.803,5228.427,N,01334.066,E,1,12,1.0,0.0,M,0.0,M,,*67
$GPGSA,A,3,01,02,03,04,05,06,07,08,09,10,11,12,1.0,1.0,1.0*30
$GPRMC,063358.803,A,5228.427,N,01334.066,E,2636.0,224.4,171118,000.0,W*4D
$GPGGA,063359.803,5227.800,N,01333.448,E,1,12,1.0,0.0,M,0.0,M,,*6F
$GPGSA,A,3,01,02,03,04,05,06,07,08,09,10,11,12,1.0,1.0,1.0*30
$GPRMC,063359.803,A,5227.800,N,01333.448,E,3096.4,221.9,171118,000.0,W*44
$GPGGA,063400.803,5227.047,N,01332.769,E,1,12,1.0,0.0,M,0.0,M,,*6E
$GPGSA,A,3,01,02,03,04,05,06,07,08,09,10,11,12,1.0,1.0,1.0*30
$GPRMC,063400.803,A,5227.047,N,01332.769,E,2826.0,243.0,171118,000.0,W*4E
$GPGGA,063401.803,5226.545,N,01331.780,E,1,12,1.0,0.0,M,0.0,M,,*6D
$GPGSA,A,3,01,02,03,04,05,06,07,08,09,10,11,12,1.0,1.0,1.0*30
$GPRMC,063401.803,A,5226.545,N,01331.780,E,2260.9,257.5,171118,000.0,W*4C
$GPGGA,063402.803,5226.331,N,01330.812,E,1,12,1.0,0.0,M,0.0,M,,*6E
$GPGSA,A,3,01,02,03,04,05,06,07,08,09,10,11,12,1.0,1.0,1.0*30
$GPRMC,063402.803,A,5226.331,N,01330.812,E,6075.6,267.6,171118,000.0,W*42
$GPGGA,063403.803,5226.218,N,01328.051,E,1,12,1.0,0.0,M,0.0,M,,*63
$GPGSA,A,3,01,02,03,04,05,06,07,08,09,10,11,12,1.0,1.0,1.0*30
$GPRMC,063403.803,A,5226.218,N,01328.051,E,3484.6,270.9,171118,000.0,W*49
$GPGGA,063404.803,5226.243,N,01326.465,E,1,12,1.0,0.0,M,0.0,M,,*67
$GPGSA,A,3,01,02,03,04,05,06,07,08,09,10,11,12,1.0,1.0,1.0*30
$GPRMC,063404.803,A,5226.243,N,01326.465,E,3608.3,274.9,171118,000.0,W*4A
$GPGGA,063405.803,5226.381,N,01324.838,E,1,12,1.0,0.0,M,0.0,M,,*6F
$GPGSA,A,3,01,02,03,04,05,06,07,08,09,10,11,12,1.0,1.0,1.0*30
$GPRMC,063405.803,A,5226.381,N,01324.838,E,2331.7,281.3,171118,000.0,W*48
$GPGGA,063406.803,5226.582,N,01323.828,E,1,12,1.0,0.0,M,0.0,M,,*6F
$GPGSA,A,3,01,02,03,04,05,06,07,08,09,10,11,12,1.0,1.0,1.0*30
$GPRMC,063406.803,A,5226.582,N,01323.828,E,6257.3,283.3,171118,000.0,W*4B
$GPGGA,063407.803,5227.210,N,01321.171,E,1,12,1.0,0.0,M,0.0,M,,*64
$GPGSA,A,3,01,02,03,04,05,06,07,08,09,10,11,12,1.0,1.0,1.0*30
$GPRMC,063407.803,A,5227.210,N,01321.171,E,2358.4,291.3,171118,000.0,W*4E
$GPGGA,063408.803,5227.561,N,01320.265,E,1,12,1.0,0.0,M,0.0,M,,*6D
$GPGSA,A,3,01,02,03,04,05,06,07,08,09,10,11,12,1.0,1.0,1.0*30
$GPRMC,063408.803,A,5227.561,N,01320.265,E,3878.8,305.4,171118,000.0,W*48
$GPGGA,063409.803,5228.377,N,01319.111,E,1,12,1.0,0.0,M,0.0,M,,*68
$GPGSA,A,3,01,02,03,04,05,06,07,08,09,10,11,12,1.0,1.0,1.0*30
$GPRMC,063409.803,A,5228.377,N,01319.111,E,3430.0,331.4,171118,000.0,W*42
$GPGGA,063410.803,5229.280,N,01318.617,E,1,12,1.0,0.0,M,0.0,M,,*68
$GPGSA,A,3,01,02,03,04,05,06,07,08,09,10,11,12,1.0,1.0,1.0*30
$GPRMC,063410.803,A,5229.280,N,01318.617,E,4976.7,354.9,171118,000.0,W*43
$GPGGA,063411.803,5230.660,N,01318.493,E,1,12,1.0,0.0,M,0.0,M,,*65
$GPGSA,A,3,01,02,03,04,05,06,07,08,09,10,11,12,1.0,1.0,1.0*30
$GPRMC,063411.803,A,5230.660,N,01318.493,E,3640.5,011.6,171118,000.0,W*4C
$GPGGA,063412.803,5231.663,N,01318.699,E,1,12,1.0,0.0,M,0.0,M,,*6C
$GPGSA,A,3,01,02,03,04,05,06,07,08,09,10,11,12,1.0,1.0,1.0*30
$GPRMC,063412.803,A,5231.663,N,01318.699,E,3969.0,026.9,171118,000.0,W*4F
$GPGGA,063413.803,5232.715,N,01319.235,E,1,12,1.0,0.0,M,0.0,M,,*6D
$GPGSA,A,3,01,02,03,04,05,06,07,08,09,10,11,12,1.0,1.0,1.0*30
$GPRMC,063413.803,A,5232.715,N,01319.235,E,3130.3,023.7,171118,000.0,W*42
$GPGGA,063414.803,5233.554,N,01319.606,E,1,12,1.0,0.0,M,0.0,M,,*68
$GPGSA,A,3,01,02,03,04,05,06,07,08,09,10,11,12,1.0,1.0,1.0*30
$GPRMC,063414.803,A,5233.554,N,01319.606,E,2804.7,040.8,171118,000.0,W*46
$GPGGA,063415.803,5234.243,N,01320.203,E,1,12,1.0,0.0,M,0.0,M,,*64
$GPGSA,A,3,01,02,03,04,05,06,07,08,09,10,11,12,1.0,1.0,1.0*30
$GPRMC,063415.803,A,5234.243,N,01320.203,E,3556.9,063.4,171118,000.0,W*42
$GPGGA,063416.803,5234.869,N,01321.460,E,1,12,1.0,0.0,M,0.0,M,,*67
$GPGSA,A,3,01,02,03,04,05,06,07,08,09,10,11,12,1.0,1.0,1.0*30
$GPRMC,063416.803,A,5234.869,N,01321.460,E,2972.8,104.0,171118,000.0,W*4F
$GPGGA,063417.803,5234.556,N,01322.716,E,1,12,1.0,0.0,M,0.0,M,,*66
$GPGSA,A,3,01,02,03,04,05,06,07,08,09,10,11,12,1.0,1.0,1.0*30
$GPRMC,063417.803,A,5234.556,N,01322.716,E,2161.6,215.3,171118,000.0,W*4A
$GPGGA,063418.803,5234.005,N,01322.325,E,1,12,1.0,0.0,M,0.0,M,,*6E
$GPGSA,A,3,01,02,03,04,05,06,07,08,09,10,11,12,1.0,1.0,1.0*30
$GPRMC,063418.803,A,5234.005,N,01322.325,E,3413.2,251.1,171118,000.0,W*45
$GPGGA,063419.803,5233.542,N,01320.965,E,1,12,1.0,0.0,M,0.0,M,,*62
$GPGSA,A,3,01,02,03,04,05,06,07,08,09,10,11,12,1.0,1.0,1.0*30
$GPRMC,063419.803,A,5233.542,N,01320.965,E,4058.2,235.7,171118,000.0,W*41
$GPGGA,063420.803,5232.703,N,01319.729,E,1,12,1.0,0.0,M,0.0,M,,*62
$GPGSA,A,3,01,02,03,04,05,06,07,08,09,10,11,12,1.0,1.0,1.0*30
$GPRMC,063420.803,A,5232.703,N,01319.729,E,3012.9,193.9,171118,000.0,W*42
$GPGGA,063421.803,5231.876,N,01319.523,E,1,12,1.0,0.0,M,0.0,M,,*65
$GPGSA,A,3,01,02,03,04,05,06,07,08,09,10,11,12,1.0,1.0,1.0*30
$GPRMC,063421.803,A,5231.876,N,01319.523,E,2573.5,180.0,171118,000.0,W*41
$GPGGA,063422.803,5231.161,N,01319.523,E,1,12,1.0,0.0,M,0.0,M,,*69
$GPGSA,A,3,01,02,03,04,05,06,07,08,09,10,11,12,1.0,1.0,1.0*30
$GPRMC,063422.803,A,5231.161,N,01319.523,E,3437.1,175.1,171118,000.0,W*42
$GPGGA,063423.803,5230.208,N,01319.606,E,1,12,1.0,0.0,M,0.0,M,,*61
$GPGSA,A,3,01,02,03,04,05,06,07,08,09,10,11,12,1.0,1.0,1.0*30
$GPRMC,063423.803,A,5230.208,N,01319.606,E,6882.6,145.0,171118,000.0,W*48
$GPGGA,063424.803,5228.452,N,01320.842,E,1,12,1.0,0.0,M,0.0,M,,*62
$GPGSA,A,3,01,02,03,04,05,06,07,08,09,10,11,12,1.0,1.0,1.0*30
$GPRMC,063424.803,A,5228.452,N,01320.842,E,4131.9,114.7,171118,000.0,W*44
$GPGGA,063425.803,5227.762,N,01322.345,E,1,12,1.0,0.0,M,0.0,M,,*62
$GPGSA,A,3,01,02,03,04,05,06,07,08,09,10,11,12,1.0,1.0,1.0*30
$GPRMC,063425.803,A,5227.762,N,01322.345,E,4450.0,106.1,171118,000.0,W*4A
$GPGGA,063426.803,5227.235,N,01324.179,E,1,12,1.0,0.0,M,0.0,M,,*6D
$GPGSA,A,3,01,02,03,04,05,06,07,08,09,10,11,12,1.0,1.0,1.0*30
$GPRMC,063426.803,A,5227.235,N,01324.179,E,3861.4,101.5,171118,000.0,W*4B
$GPGGA,063427.803,5226.896,N,01325.847,E,1,12,1.0,0.0,M,0.0,M,,*6B
$GPGSA,A,3,01,02,03,04,05,06,07,08,09,10,11,12,1.0,1.0,1.0*30
$GPRMC,063427.803,A,5226.896,N,01325.847,E,4393.0,091.8,171118,000.0,W*4D
$GPGGA,063428.803,5226.833,N,01327.845,E,1,12,1.0,0.0,M,0.0,M,,*6B
$GPGSA,A,3,01,02,03,04,05,06,07,08,09,10,11,12,1.0,1.0,1.0*30
$GPRMC,063428.803,A,5226.833,N,01327.845,E,3174.1,092.5,171118,000.0,W*4E
$GPGGA,063429.803,5226.771,N,01329.287,E,1,12,1.0,0.0,M,0.0,M,,*69
$GPGSA,A,3,01,02,03,04,05,06,07,08,09,10,11,12,1.0,1.0,1.0*30
$GPRMC,063429.803,A,5226.771,N,01329.287,E,5041.3,084.3,171118,000.0,W*4E
$GPGGA,063430.803,5226.997,N,01331.553,E,1,12,1.0,0.0,M,0.0,M,,*60
$GPGSA,A,3,01,02,03,04,05,06,07,08,09,10,11,12,1.0,1.0,1.0*30
$GPRMC,063430.803,A,5226.997,N,01331.553,E,3925.6,036.7,171118,000.0,W*42
$GPGGA,063431.803,5227.988,N,01332.295,E,1,12,1.0,0.0,M,0.0,M,,*60
$GPGSA,A,3,01,02,03,04,05,06,07,08,09,10,11,12,1.0,1.0,1.0*30
$GPRMC,063431.803,A,5227.988,N,01332.295,E,5132.8,019.5,171118,000.0,W*4B
$GPGGA,063432.803,5229.381,N,01332.789,E,1,12,1.0,0.0,M,0.0,M,,*66
$GPGSA,A,3,01,02,03,04,05,06,07,08,09,10,11,12,1.0,1.0,1.0*30
$GPRMC,063432.803,A,5229.381,N,01332.789,E,4000.1,028.6,171118,000.0,W*44
$GPGGA,063433.803,5230.434,N,01333.366,E,1,12,1.0,0.0,M,0.0,M,,*62
$GPGSA,A,3,01,02,03,04,05,06,07,08,09,10,11,12,1.0,1.0,1.0*30
$GPRMC,063433.803,A,5230.434,N,01333.366,E,2494.2,061.1,171118,000.0,W*46
$GPGGA,063434.803,5230.898,N,01334.211,E,1,12,1.0,0.0,M,0.0,M,,*69
$GPGSA,A,3,01,02,03,04,05,06,07,08,09,10,11,12,1.0,1.0,1.0*30
$GPRMC,063434.803,A,5230.898,N,01334.211,E,3335.8,306.5,171118,000.0,W*4C
$GPGGA,063435.803,5231.612,N,01333.242,E,1,12,1.0,0.0,M,0.0,M,,*64
$GPGSA,A,3,01,02,03,04,05,06,07,08,09,10,11,12,1.0,1.0,1.0*30
$GPRMC,063435.803,A,5231.612,N,01333.242,E,3036.6,055.8,171118,000.0,W*47
$GPGGA,063436.803,5232.239,N,01334.169,E,1,12,1.0,0.0,M,0.0,M,,*64
$GPGSA,A,3,01,02,03,04,05,06,07,08,09,10,11,12,1.0,1.0,1.0*30
$GPRMC,063436.803,A,5232.239,N,01334.169,E,3735.4,288.1,171118,000.0,W*4A
$GPGGA,063437.803,5232.728,N,01332.666,E,1,12,1.0,0.0,M,0.0,M,,*6E
$GPGSA,A,3,01,02,03,04,05,06,07,08,09,10,11,12,1.0,1.0,1.0*30
$GPRMC,063437.803,A,5232.728,N,01332.666,E,3393.9,066.2,171118,000.0,W*44
$GPGGA,063438.803,5233.279,N,01333.922,E,1,12,1.0,0.0,M,0.0,M,,*6F
$GPGSA,A,3,01,02,03,04,05,06,07,08,09,10,11,12,1.0,1.0,1.0*30
$GPRMC,063438.803,A,5233.279,N,01333.922,E,3755.5,280.0,171118,000.0,W*4F
$GPGGA,063439.803,5233.567,N,01332.274,E,1,12,1.0,0.0,M,0.0,M,,*6F
$GPGSA,A,3,01,02,03,04,05,06,07,08,09,10,11,12,1.0,1.0,1.0*30
$GPRMC,063439.803,A,5233.567,N,01332.274,E,3102.0,054.8,171118,000.0,W*4D
$GPGGA,063440.803,5234.218,N,01333.201,E,1,12,1.0,0.0,M,0.0,M,,*6A
$GPGSA,A,3,01,02,03,04,05,06,07,08,09,10,11,12,1.0,1.0,1.0*30
$GPRMC,063440.803,A,5234.218,N,01333.201,E,3764.9,303.2,171118,000.0,W*4C
$GPGGA,063441.803,5234.982,N,01332.027,E,1,12,1.0,0.0,M,0.0,M,,*64
$GPGSA,A,3,01,02,03,04,05,06,07,08,09,10,11,12,1.0,1.0,1.0*30
$GPRMC,063441.803,A,5234.982,N,01332.027,E,3898.5,250.7,171118,000.0,W*40
$GPGGA,063442.803,5234.443,N,01330.482,E,1,12,1.0,0.0,M,0.0,M,,*6E
$GPGSA,A,3,01,02,03,04,05,06,07,08,09,10,11,12,1.0,1.0,1.0*30
$GPRMC,063442.803,A,5234.443,N,01330.482,E,4540.1,217.7,171118,000.0,W*42
$GPGGA,063443.803,5233.304,N,01329.596,E,1,12,1.0,0.0,M,0.0,M,,*60
$GPGSA,A,3,01,02,03,04,05,06,07,08,09,10,11,12,1.0,1.0,1.0*30
$GPRMC,063443.803,A,5233.304,N,01329.596,E,3427.4,256.9,171118,000.0,W*45
$GPGGA,063444.803,5232.966,N,01328.134,E,1,12,1.0,0.0,M,0.0,M,,*65
$GPGSA,A,3,01,02,03,04,05,06,07,08,09,10,11,12,1.0,1.0,1.0*30
$GPRMC,063444.803,A,5232.966,N,01328.134,E,3161.1,004.0,171118,000.0,W*4E
$GPGGA,063445.803,5233.842,N,01328.195,E,1,12,1.0,0.0,M,0.0,M,,*69
$GPGSA,A,3,01,02,03,04,05,06,07,08,09,10,11,12,1.0,1.0,1.0*30
$GPRMC,063445.803,A,5233.842,N,01328.195,E,5791.1,047.4,171118,000.0,W*4E
$GPGGA,063446.803,5235.182,N,01329.658,E,1,12,1.0,0.0,M,0.0,M,,*6E
$GPGSA,A,3,01,02,03,04,05,06,07,08,09,10,11,12,1.0,1.0,1.0*30
$GPRMC,063446.803,A,5235.182,N,01329.658,E,3382.6,089.1,171118,000.0,W*49
$GPGGA,063447.803,5235.207,N,01331.203,E,1,12,1.0,0.0,M,0.0,M,,*62
$GPGSA,A,3,01,02,03,04,05,06,07,08,09,10,11,12,1.0,1.0,1.0*30
$GPRMC,063447.803,A,5235.207,N,01331.203,E,4959.6,287.3,171118,000.0,W*40
$GPGGA,063448.803,5235.833,N,01329.184,E,1,12,1.0,0.0,M,0.0,M,,*65
$GPGSA,A,3,01,02,03,04,05,06,07,08,09,10,11,12,1.0,1.0,1.0*30
$GPRMC,063448.803,A,5235.833,N,01329.184,E,4158.9,267.3,171118,000.0,W*4F
$GPGGA,063449.803,5235.745,N,01327.289,E,1,12,1.0,0.0,M,0.0,M,,*6A
$GPGSA,A,3,01,02,03,04,05,06,07,08,09,10,11,12,1.0,1.0,1.0*30
$GPRMC,063449.803,A,5235.745,N,01327.289,E,3943.9,197.0,171118,000.0,W*4A
$GPGGA,063450.803,5234.669,N,01326.960,E,1,12,1.0,0.0,M,0.0,M,,*61
$GPGSA,A,3,01,02,03,04,05,06,07,08,09,10,11,12,1.0,1.0,1.0*30
$GPRMC,063450.803,A,5234.669,N,01326.960,E,3425.2,076.9,171118,000.0,W*40
$GPGGA,063451.803,5235.007,N,01328.422,E,1,12,1.0,0.0,M,0.0,M,,*6A
$GPGSA,A,3,01,02,03,04,05,06,07,08,09,10,11,12,1.0,1.0,1.0*30
$GPRMC,063451.803,A,5235.007,N,01328.422,E,6317.1,240.1,171118,000.0,W*44
$GPGGA,063452.803,5233.805,N,01326.321,E,1,12,1.0,0.0,M,0.0,M,,*6F
$GPGSA,A,3,01,02,03,04,05,06,07,08,09,10,11,12,1.0,1.0,1.0*30
$GPRMC,063452.803,A,5233.805,N,01326.321,E,8724.5,348.4,171118,000.0,W*43
$GPGGA,063453.803,5236.208,N,01325.827,E,1,12,1.0,0.0,M,0.0,M,,*62
$GPGSA,A,3,01,02,03,04,05,06,07,08,09,10,11,12,1.0,1.0,1.0*30
$GPRMC,063453.803,A,5236.208,N,01325.827,E,2660.6,263.4,171118,000.0,W*4E
$GPGGA,063454.803,5236.070,N,01324.632,E,1,12,1.0,0.0,M,0.0,M,,*63
$GPGSA,A,3,01,02,03,04,05,06,07,08,09,10,11,12,1.0,1.0,1.0*30
$GPRMC,063454.803,A,5236.070,N,01324.632,E,3092.3,135.8,171118,000.0,W*4C
$GPGGA,063455.803,5235.332,N,01325.353,E,1,12,1.0,0.0,M,0.0,M,,*67
$GPGSA,A,3,01,02,03,04,05,06,07,08,09,10,11,12,1.0,1.0,1.0*30
$GPRMC,063455.803,A,5235.332,N,01325.353,E,3306.8,171.1,171118,000.0,W*44
$GPGGA,063456.803,5234.418,N,01325.497,E,1,12,1.0,0.0,M,0.0,M,,*65
$GPGSA,A,3,01,02,03,04,05,06,07,08,09,10,11,12,1.0,1.0,1.0*30
$GPRMC,063456.803,A,5234.418,N,01325.497,E,3106.9,243.1,171118,000.0,W*47
$GPGGA,063457.803,5233.867,N,01324.405,E,1,12,1.0,0.0,M,0.0,M,,*6D
$GPGSA,A,3,01,02,03,04,05,06,07,08,09,10,11,12,1.0,1.0,1.0*30
$GPRMC,063457.803,A,5233.867,N,01324.405,E,4617.6,340.2,171118,000.0,W*41
$GPGGA,063458.803,5235.119,N,01323.952,E,1,12,1.0,0.0,M,0.0,M,,*6C
$GPGSA,A,3,01,02,03,04,05,06,07,08,09,10,11,12,1.0,1.0,1.0*30
$GPRMC,063458.803,A,5235.119,N,01323.952,E,2013.2,292.4,171118,000.0,W*48
$GPGGA,063459.803,5235.432,N,01323.190,E,1,12,1.0,0.0,M,0.0,M,,*67
$GPGSA,A,3,01,02,03,04,05,06,07,08,09,10,11,12,1.0,1.0,1.0*30
$GPRMC,063459.803,A,5235.432,N,01323.190,E,5324.5,268.5,171118,000.0,W*40
$GPGGA,063500.803,5235.370,N,01320.759,E,1,12,1.0,0.0,M,0.0,M,,*6B
$GPGSA,A,3,01,02,03,04,05,06,07,08,09,10,11,12,1.0,1.0,1.0*30
$GPRMC,063500.803,A,5235.370,N,01320.759,E,038.9,234.6,171118,000.0,W*71
$GPGGA,063501.803,5235.361,N,01320.748,E,1,12,1.0,0.0,M,0.0,M,,*6A
$GPGSA,A,3,01,02,03,04,05,06,07,08,09,10,11,12,1.0,1.0,1.0*30
$GPRMC,063501.803,A,5235.361,N,01320.748,E,038.9,234.6,171118,000.0,W*70
$GPGGA,063502.803,5235.353,N,01320.736,E,1,12,1.0,0.0,M,0.0,M,,*61
$GPGSA,A,3,01,02,03,04,05,06,07,08,09,10,11,12,1.0,1.0,1.0*30
$GPRMC,063502.803,A,5235.353,N,01320.736,E,038.9,234.6,171118,000.0,W*7B
$GPGGA,063503.803,5235.345,N,01320.724,E,1,12,1.0,0.0,M,0.0,M,,*64
$GPGSA,A,3,01,02,03,04,05,06,07,08,09,10,11,12,1.0,1.0,1.0*30
$GPRMC,063503.803,A,5235.345,N,01320.724,E,038.9,234.6,171118,000.0,W*7E
$GPGGA,063504.803,5235.337,N,01320.713,E,1,12,1.0,0.0,M,0.0,M,,*62
$GPGSA,A,3,01,02,03,04,05,06,07,08,09,10,11,12,1.0,1.0,1.0*30
$GPRMC,063504.803,A,5235.337,N,01320.713,E,038.9,234.6,171118,000.0,W*78
$GPGGA,063505.803,5235.329,N,01320.701,E,1,12,1.0,0.0,M,0.0,M,,*6F
$GPGSA,A,3,01,02,03,04,05,06,07,08,09,10,11,12,1.0,1.0,1.0*30
$GPRMC,063505.803,A,5235.329,N,01320.701,E,038.9,234.6,171118,000.0,W*75
$GPGGA,063506.803,5235.320,N,01320.690,E,1,12,1.0,0.0,M,0.0,M,,*6C
$GPGSA,A,3,01,02,03,04,05,06,07,08,09,10,11,12,1.0,1.0,1.0*30
$GPRMC,063506.803,A,5235.320,N,01320.690,E,038.9,234.6,171118,000.0,W*76
$GPGGA,063507.803,5235.312,N,01320.678,E,1,12,1.0,0.0,M,0.0,M,,*6A
$GPGSA,A,3,01,02,03,04,05,06,07,08,09,10,11,12,1.0,1.0,1.0*30
$GPRMC,063507.803,A,5235.312,N,01320.678,E,038.9,234.6,171118,000.0,W*70
$GPGGA,063508.803,5235.304,N,01320.667,E,1,12,1.0,0.0,M,0.0,M,,*6C
$GPGSA,A,3,01,02,03,04,05,06,07,08,09,10,11,12,1.0,1.0,1.0*30
$GPRMC,063508.803,A,5235.304,N,01320.667,E,038.9,234.6,171118,000.0,W*76
$GPGGA,063509.803,5235.296,N,01320.655,E,1,12,1.0,0.0,M,0.0,M,,*66
$GPGSA,A,3,01,02,03,04,05,06,07,08,09,10,11,12,1.0,1.0,1.0*30
$GPRMC,063509.803,A,5235.296,N,01320.655,E,038.9,234.6,171118,000.0,W*7C
$GPGGA,063510.803,5235.288,N,01320.644,E,1,12,1.0,0.0,M,0.0,M,,*61
$GPGSA,A,3,01,02,03,04,05,06,07,08,09,10,11,12,1.0,1.0,1.0*30
$GPRMC,063510.803,A,5235.288,N,01320.644,E,038.9,234.6,171118,000.0,W*7B
$GPGGA,063511.803,5235.279,N,01320.632,E,1,12,1.0,0.0,M,0.0,M,,*6F
$GPGSA,A,3,01,02,03,04,05,06,07,08,09,10,11,12,1.0,1.0,1.0*30
$GPRMC,063511.803,A,5235.279,N,01320.632,E,038.9,234.6,171118,000.0,W*75
$GPGGA,063512.803,5235.271,N,01320.620,E,1,12,1.0,0.0,M,0.0,M,,*67
$GPGSA,A,3,01,02,03,04,05,06,07,08,09,10,11,12,1.0,1.0,1.0*30
$GPRMC,063512.803,A,5235.271,N,01320.620,E,038.9,234.6,171118,000.0,W*7D
$GPGGA,063513.803,5235.263,N,01320.609,E,1,12,1.0,0.0,M,0.0,M,,*6E
$GPGSA,A,3,01,02,03,04,05,06,07,08,09,10,11,12,1.0,1.0,1.0*30
$GPRMC,063513.803,A,5235.263,N,01320.609,E,038.9,234.6,171118,000.0,W*74
$GPGGA,063514.803,5235.255,N,01320.597,E,1,12,1.0,0.0,M,0.0,M,,*68
$GPGSA,A,3,01,02,03,04,05,06,07,08,09,10,11,12,1.0,1.0,1.0*30
$GPRMC,063514.803,A,5235.255,N,01320.597,E,038.9,234.6,171118,000.0,W*72
$GPGGA,063515.803,5235.247,N,01320.586,E,1,12,1.0,0.0,M,0.0,M,,*6A
$GPGSA,A,3,01,02,03,04,05,06,07,08,09,10,11,12,1.0,1.0,1.0*30
$GPRMC,063515.803,A,5235.247,N,01320.586,E,038.9,234.6,171118,000.0,W*70
$GPGGA,063516.803,5235.238,N,01320.574,E,1,12,1.0,0.0,M,0.0,M,,*6C
$GPGSA,A,3,01,02,03,04,05,06,07,08,09,10,11,12,1.0,1.0,1.0*30
$GPRMC,063516.803,A,5235.238,N,01320.574,E,038.9,234.6,171118,000.0,W*76
$GPGGA,063517.803,5235.230,N,01320.563,E,1,12,1.0,0.0,M,0.0,M,,*63
$GPGSA,A,3,01,02,03,04,05,06,07,08,09,10,11,12,1.0,1.0,1.0*30
$GPRMC,063517.803,A,5235.230,N,01320.563,E,038.9,234.6,171118,000.0,W*79
$GPGGA,063518.803,5235.222,N,01320.551,E,1,12,1.0,0.0,M,0.0,M,,*6E
$GPGSA,A,3,01,02,03,04,05,06,07,08,09,10,11,12,1.0,1.0,1.0*30
$GPRMC,063518.803,A,5235.222,N,01320.551,E,038.9,234.6,171118,000.0,W*74
$GPGGA,063519.803,5235.214,N,01320.540,E,1,12,1.0,0.0,M,0.0,M,,*6A
$GPGSA,A,3,01,02,03,04,05,06,07,08,09,10,11,12,1.0,1.0,1.0*30
$GPRMC,063519.803,A,5235.214,N,01320.540,E,038.9,234.6,171118,000.0,W*70
$GPGGA,063520.803,5235.206,N,01320.528,E,1,12,1.0,0.0,M,0.0,M,,*6D
$GPGSA,A,3,01,02,03,04,05,06,07,08,09,10,11,12,1.0,1.0,1.0*30
$GPRMC,063520.803,A,5235.206,N,01320.528,E,038.9,234.6,171118,000.0,W*77
$GPGGA,063521.803,5235.197,N,01320.516,E,1,12,1.0,0.0,M,0.0,M,,*6A
$GPGSA,A,3,01,02,03,04,05,06,07,08,09,10,11,12,1.0,1.0,1.0*30
$GPRMC,063521.803,A,5235.197,N,01320.516,E,038.9,234.6,171118,000.0,W*70
$GPGGA,063522.803,5235.189,N,01320.505,E,1,12,1.0,0.0,M,0.0,M,,*64
$GPGSA,A,3,01,02,03,04,05,06,07,08,09,10,11,12,1.0,1.0,1.0*30
$GPRMC,063522.803,A,5235.189,N,01320.505,E,038.9,234.6,171118,000.0,W*7E
$GPGGA,063523.803,5235.181,N,01320.493,E,1,12,1.0,0.0,M,0.0,M,,*63
$GPGSA,A,3,01,02,03,04,05,06,07,08,09,10,11,12,1.0,1.0,1.0*30
$GPRMC,063523.803,A,5235.181,N,01320.493,E,038.9,234.6,171118,000.0,W*79
$GPGGA,063524.803,5235.173,N,01320.482,E,1,12,1.0,0.0,M,0.0,M,,*69
$GPGSA,A,3,01,02,03,04,05,06,07,08,09,10,11,12,1.0,1.0,1.0*30
$GPRMC,063524.803,A,5235.173,N,01320.482,E,038.9,234.6,171118,000.0,W*73
$GPGGA,063525.803,5235.165,N,01320.470,E,1,12,1.0,0.0,M,0.0,M,,*62
$GPGSA,A,3,01,02,03,04,05,06,07,08,09,10,11,12,1.0,1.0,1.0*30
$GPRMC,063525.803,A,5235.165,N,01320.470,E,038.9,234.6,171118,000.0,W*78
$GPGGA,063526.803,5235.156,N,01320.459,E,1,12,1.0,0.0,M,0.0,M,,*6A
$GPGSA,A,3,01,02,03,04,05,06,07,08,09,10,11,12,1.0,1.0,1.0*30
$GPRMC,063526.803,A,5235.156,N,01320.459,E,038.9,234.6,171118,000.0,W*70
$GPGGA,063527.803,5235.148,N,01320.447,E,1,12,1.0,0.0,M,0.0,M,,*6B
$GPGSA,A,3,01,02,03,04,05,06,07,08,09,10,11,12,1.0,1.0,1.0*30
$GPRMC,063527.803,A,5235.148,N,01320.447,E,038.9,234.6,171118,000.0,W*71
$GPGGA,063528.803,5235.140,N,01320.435,E,1,12,1.0,0.0,M,0.0,M,,*69
$GPGSA,A,3,01,02,03,04,05,06,07,08,09,10,11,12,1.0,1.0,1.0*30
$GPRMC,063528.803,A,5235.140,N,01320.435,E,038.9,234.6,171118,000.0,W*73
$GPGGA,063529.803,5235.132,N,01320.424,E,1,12,1.0,0.0,M,0.0,M,,*6D
$GPGSA,A,3,01,02,03,04,05,06,07,08,09,10,11,12,1.0,1.0,1.0*30
$GPRMC,063529.803,A,5235.132,N,01320.424,E,038.9,234.6,171118,000.0,W*77
$GPGGA,063530.803,5235.124,N,01320.412,E,1,12,1.0,0.0,M,0.0,M,,*67
$GPGSA,A,3,01,02,03,04,05,06,07,08,09,10,11,12,1.0,1.0,1.0*30
$GPRMC,063530.803,A,5235.124,N,01320.412,E,038.9,234.6,171118,000.0,W*7D
$GPGGA,063531.803,5235.116,N,01320.401,E,1,12,1.0,0.0,M,0.0,M,,*65
$GPGSA,A,3,01,02,03,04,05,06,07,08,09,10,11,12,1.0,1.0,1.0*30
$GPRMC,063531.803,A,5235.116,N,01320.401,E,038.9,234.6,171118,000.0,W*7F
$GPGGA,063532.803,5235.107,N,01320.389,E,1,12,1.0,0.0,M,0.0,M,,*61
$GPGSA,A,3,01,02,03,04,05,06,07,08,09,10,11,12,1.0,1.0,1.0*30
$GPRMC,063532.803,A,5235.107,N,01320.389,E,038.9,234.6,171118,000.0,W*7B
$GPGGA,063533.803,5235.099,N,01320.378,E,1,12,1.0,0.0,M,0.0,M,,*68
$GPGSA,A,3,01,02,03,04,05,06,07,08,09,10,11,12,1.0,1.0,1.0*30
$GPRMC,063533.803,A,5235.099,N,01320.378,E,038.9,234.6,171118,000.0,W*72
$GPGGA,063534.803,5235.091,N,01320.366,E,1,12,1.0,0.0,M,0.0,M,,*68
$GPGSA,A,3,01,02,03,04,05,06,07,08,09,10,11,12,1.0,1.0,1.0*30
$GPRMC,063534.803,A,5235.091,N,01320.366,E,038.9,234.6,171118,000.0,W*72
$GPGGA,063535.803,5235.083,N,01320.355,E,1,12,1.0,0.0,M,0.0,M,,*6A
$GPGSA,A,3,01,02,03,04,05,06,07,08,09,10,11,12,1.0,1.0,1.0*30
$GPRMC,063535.803,A,5235.083,N,01320.355,E,038.9,234.6,171118,000.0,W*70
$GPGGA,063536.803,5235.075,N,01320.343,E,1,12,1.0,0.0,M,0.0,M,,*67
$GPGSA,A,3,01,02,03,04,05,06,07,08,09,10,11,12,1.0,1.0,1.0*30
$GPRMC,063536.803,A,5235.075,N,01320.343,E,038.9,234.6,171118,000.0,W*7D
$GPGGA,063537.803,5235.066,N,01320.331,E,1,12,1.0,0.0,M,0.0,M,,*61
$GPGSA,A,3,01,02,03,04,05,06,07,08,09,10,11,12,1.0,1.0,1.0*30
$GPRMC,063537.803,A,5235.066,N,01320.331,E,038.9,234.6,171118,000.0,W*7B
$GPGGA,063538.803,5235.058,N,01320.320,E,1,12,1.0,0.0,M,0.0,M,,*63
$GPGSA,A,3,01,02,03,04,05,06,07,08,09,10,11,12,1.0,1.0,1.0*30
$GPRMC,063538.803,A,5235.058,N,01320.320,E,038.9,234.6,171118,000.0,W*79
$GPGGA,063539.803,5235.050,N,01320.308,E,1,12,1.0,0.0,M,0.0,M,,*60
$GPGSA,A,3,01,02,03,04,05,06,07,08,09,10,11,12,1.0,1.0,1.0*30
$GPRMC,063539.803,A,5235.050,N,01320.308,E,038.9,234.6,171118,000.0,W*7A
$GPGGA,063540.803,5235.042,N,01320.297,E,1,12,1.0,0.0,M,0.0,M,,*6A
$GPGSA,A,3,01,02,03,04,05,06,07,08,09,10,11,12,1.0,1.0,1.0*30
$GPRMC,063540.803,A,5235.042,N,01320.297,E,038.9,234.6,171118,000.0,W*70
$GPGGA,063541.803,5235.034,N,01320.285,E,1,12,1.0,0.0,M,0.0,M,,*69
$GPGSA,A,3,01,02,03,04,05,06,07,08,09,10,11,12,1.0,1.0,1.0*30
$GPRMC,063541.803,A,5235.034,N,01320.285,E,038.9,234.6,171118,000.0,W*73
$GPGGA,063542.803,5235.025,N,01320.274,E,1,12,1.0,0.0,M,0.0,M,,*64
$GPGSA,A,3,01,02,03,04,05,06,07,08,09,10,11,12,1.0,1.0,1.0*30
$GPRMC,063542.803,A,5235.025,N,01320.274,E,038.9,234.6,171118,000.0,W*7E
$GPGGA,063543.803,5235.017,N,01320.262,E,1,12,1.0,0.0,M,0.0,M,,*63
$GPGSA,A,3,01,02,03,04,05,06,07,08,09,10,11,12,1.0,1.0,1.0*30
$GPRMC,063543.803,A,5235.017,N,01320.262,E,038.9,234.6,171118,000.0,W*79
$GPGGA,063544.803,5235.009,N,01320.251,E,1,12,1.0,0.0,M,0.0,M,,*6B
$GPGSA,A,3,01,02,03,04,05,06,07,08,09,10,11,12,1.0,1.0,1.0*30
$GPRMC,063544.803,A,5235.009,N,01320.251,E,038.9,234.6,171118,000.0,W*71
$GPGGA,063545.803,5235.001,N,01320.239,E,1,12,1.0,0.0,M,0.0,M,,*6C
$GPGSA,A,3,01,02,03,04,05,06,07,08,09,10,11,12,1.0,1.0,1.0*30
$GPRMC,063545.803,A,5235.001,N,01320.239,E,038.9,234.6,171118,000.0,W*76
$GPGGA,063546.803,5234.993,N,01320.227,E,1,12,1.0,0.0,M,0.0,M,,*63
$GPGSA,A,3,01,02,03,04,05,06,07,08,09,10,11,12,1.0,1.0,1.0*30
$GPRMC,063546.803,A,5234.993,N,01320.227,E,038.9,234.6,171118,000.0,W*79
$GPGGA,063547.803,5234.984,N,01320.216,E,1,12,1.0,0.0,M,0.0,M,,*66
$GPGSA,A,3,01,02,03,04,05,06,07,08,09,10,11,12,1.0,1.0,1.0*30
$GPRMC,063547.803,A,5234.984,N,01320.216,E,038.9,234.6,171118,000.0,W*7C
$GPGGA,063548.803,5234.976,N,01320.204,E,1,12,1.0,0.0,M,0.0,M,,*67
$GPGSA,A,3,01,02,03,04,05,06,07,08,09,10,11,12,1.0,1.0,1.0*30
$GPRMC,063548.803,A,5234.976,N,01320.204,E,038.9,234.6,171118,000.0,W*7D
$GPGGA,063549.803,5234.968,N,01320.193,E,1,12,1.0,0.0,M,0.0,M,,*64
$GPGSA,A,3,01,02,03,04,05,06,07,08,09,10,11,12,1.0,1.0,1.0*30
$GPRMC,063549.803,A,5234.968,N,01320.193,E,038.9,234.6,171118,000.0,W*7E
$GPGGA,063550.803,5234.960,N,01320.181,E,1,12,1.0,0.0,M,0.0,M,,*67
$GPGSA,A,3,01,02,03,04,05,06,07,08,09,10,11,12,1.0,1.0,1.0*30
$GPRMC,063550.803,A,5234.960,N,01320.181,E,038.9,234.6,171118,000.0,W*7D
$GPGGA,063551.803,5234.952,N,01320.170,E,1,12,1.0,0.0,M,0.0,M,,*69
$GPGSA,A,3,01,02,03,04,05,06,07,08,09,10,11,12,1.0,1.0,1.0*30
$GPRMC,063551.803,A,5234.952,N,01320.170,E,038.9,234.6,171118,000.0,W*73
$GPGGA,063552.803,5234.943,N,01320.158,E,1,12,1.0,0.0,M,0.0,M,,*60
$GPGSA,A,3,01,02,03,04,05,06,07,08,09,10,11,12,1.0,1.0,1.0*30
$GPRMC,063552.803,A,5234.943,N,01320.158,E,038.9,234.6,171118,000.0,W*7A
$GPGGA,063553.803,5234.935,N,01320.147,E,1,12,1.0,0.0,M,0.0,M,,*6E
$GPGSA,A,3,01,02,03,04,05,06,07,08,09,10,11,12,1.0,1.0,1.0*30
$GPRMC,063553.803,A,5234.935,N,01320.147,E,038.9,234.6,171118,000.0,W*74
$GPGGA,063554.803,5234.927,N,01320.135,E,1,12,1.0,0.0,M,0.0,M,,*6F
$GPGSA,A,3,01,02,03,04,05,06,07,08,09,10,11,12,1.0,1.0,1.0*30
$GPRMC,063554.803,A,5234.927,N,01320.135,E,038.9,234.6,171118,000.0,W*75
$GPGGA,063555.803,5234.919,N,01320.123,E,1,12,1.0,0.0,M,0.0,M,,*64
$GPGSA,A,3,01,02,03,04,05,06,07,08,09,10,11,12,1.0,1.0,1.0*30
$GPRMC,063555.803,A,5234.919,N,01320.123,E,038.9,234.6,171118,000.0,W*7E
$GPGGA,063556.803,5234.911,N,01320.112,E,1,12,1.0,0.0,M,0.0,M,,*6D
$GPGSA,A,3,01,02,03,04,05,06,07,08,09,10,11,12,1.0,1.0,1.0*30
$GPRMC,063556.803,A,5234.911,N,01320.112,E,038.9,234.6,171118,000.0,W*77
$GPGGA,063557.803,5234.902,N,01320.100,E,1,12,1.0,0.0,M,0.0,M,,*6D
$GPGSA,A,3,01,02,03,04,05,06,07,08,09,10,11,12,1.0,1.0,1.0*30
$GPRMC,063557.803,A,5234.902,N,01320.100,E,038.9,234.6,171118,000.0,W*77
$GPGGA,063558.803,5234.894,N,01320.089,E,1,12,1.0,0.0,M,0.0,M,,*6C
$GPGSA,A,3,01,02,03,04,05,06,07,08,09,10,11,12,1.0,1.0,1.0*30
$GPRMC,063558.803,A,5234.894,N,01320.089,E,038.9,234.6,171118,000.0,W*76
$GPGGA,063559.803,5234.886,N,01320.077,E,1,12,1.0,0.0,M,0.0,M,,*6F
$GPGSA,A,3,01,02,03,04,05,06,07,08,09,10,11,12,1.0,1.0,1.0*30
$GPRMC,063559.803,A,5234.886,N,01320.077,E,038.9,234.6,171118,000.0,W*75
$GPGGA,063600.803,5234.878,N,01320.066,E,1,12,1.0,0.0,M,0.0,M,,*61
$GPGSA,A,3,01,02,03,04,05,06,07,08,09,10,11,12,1.0,1.0,1.0*30
$GPRMC,063600.803,A,5234.878,N,01320.066,E,038.9,234.6,171118,000.0,W*7B
$GPGGA,063601.803,5234.870,N,01320.054,E,1,12,1.0,0.0,M,0.0,M,,*69
$GPGSA,A,3,01,02,03,04,05,06,07,08,09,10,11,12,1.0,1.0,1.0*30
$GPRMC,063601.803,A,5234.870,N,01320.054,E,038.9,234.6,171118,000.0,W*73
$GPGGA,063602.803,5234.862,N,01320.042,E,1,12,1.0,0.0,M,0.0,M,,*6E
$GPGSA,A,3,01,02,03,04,05,06,07,08,09,10,11,12,1.0,1.0,1.0*30
$GPRMC,063602.803,A,5234.862,N,01320.042,E,038.9,234.6,171118,000.0,W*74
$GPGGA,063603.803,5234.853,N,01320.031,E,1,12,1.0,0.0,M,0.0,M,,*69
$GPGSA,A,3,01,02,03,04,05,06,07,08,09,10,11,12,1.0,1.0,1.0*30
$GPRMC,063603.803,A,5234.853,N,01320.031,E,038.9,234.6,171118,000.0,W*73
$GPGGA,063604.803,5234.845,N,01320.019,E,1,12,1.0,0.0,M,0.0,M,,*63
$GPGSA,A,3,01,02,03,04,05,06,07,08,09,10,11,12,1.0,1.0,1.0*30
$GPRMC,063604.803,A,5234.845,N,01320.019,E,038.9,234.6,171118,000.0,W*79
$GPGGA,063605.803,5234.837,N,01320.008,E,1,12,1.0,0.0,M,0.0,M,,*67
$GPGSA,A,3,01,02,03,04,05,06,07,08,09,10,11,12,1.0,1.0,1.0*30
$GPRMC,063605.803,A,5234.837,N,01320.008,E,038.9,234.6,171118,000.0,W*7D
$GPGGA,063606.803,5234.829,N,01319.996,E,1,12,1.0,0.0,M,0.0,M,,*6F
$GPGSA,A,3,01,02,03,04,05,06,07,08,09,10,11,12,1.0,1.0,1.0*30
$GPRMC,063606.803,A,5234.829,N,01319.996,E,038.9,234.6,171118,000.0,W*75
$GPGGA,063607.803,5234.821,N,01319.985,E,1,12,1.0,0.0,M,0.0,M,,*64
$GPGSA,A,3,01,02,03,04,05,06,07,08,09,10,11,12,1.0,1.0,1.0*30
$GPRMC,063607.803,A,5234.821,N,01319.985,E,038.9,234.6,171118,000.0,W*7E
$GPGGA,063608.803,5234.812,N,01319.973,E,1,12,1.0,0.0,M,0.0,M,,*62
$GPGSA,A,3,01,02,03,04,05,06,07,08,09,10,11,12,1.0,1.0,1.0*30
$GPRMC,063608.803,A,5234.812,N,01319.973,E,038.9,234.6,171118,000.0,W*78
$GPGGA,063609.803,5234.804,N,01319.962,E,1,12,1.0,0.0,M,0.0,M,,*64
$GPGSA,A,3,01,02,03,04,05,06,07,08,09,10,11,12,1.0,1.0,1.0*30
$GPRMC,063609.803,A,5234.804,N,01319.962,E,038.9,234.6,171118,000.0,W*7E
$GPGGA,063610.803,5234.796,N,01319.950,E,1,12,1.0,0.0,M,0.0,M,,*69
$GPGSA,A,3,01,02,03,04,05,06,07,08,09,10,11,12,1.0,1.0,1.0*30
$GPRMC,063610.803,A,5234.796,N,01319.950,E,038.9,234.6,171118,000.0,W*73
$GPGGA,063611.803,5234.788,N,01319.938,E,1,12,1.0,0.0,M,0.0,M,,*69
$GPGSA,A,3,01,02,03,04,05,06,07,08,09,10,11,12,1.0,1.0,1.0*30
$GPRMC,063611.803,A,5234.788,N,01319.938,E,038.9,234.6,171118,000.0,W*73
$GPGGA,063612.803,5234.780,N,01319.927,E,1,12,1.0,0.0,M,0.0,M,,*6C
$GPGSA,A,3,01,02,03,04,05,06,07,08,09,10,11,12,1.0,1.0,1.0*30
$GPRMC,063612.803,A,5234.780,N,01319.927,E,038.9,234.6,171118,000.0,W*76
$GPGGA,063613.803,5234.771,N,01319.915,E,1,12,1.0,0.0,M,0.0,M,,*62
$GPGSA,A,3,01,02,03,04,05,06,07,08,09,10,11,12,1.0,1.0,1.0*30
$GPRMC,063613.803,A,5234.771,N,01319.915,E,038.9,234.6,171118,000.0,W*78
$GPGGA,063614.803,5234.763,N,01319.904,E,1,12,1.0,0.0,M,0.0,M,,*66
$GPGSA,A,3,01,02,03,04,05,06,07,08,09,10,11,12,1.0,1.0,1.0*30
$GPRMC,063614.803,A,5234.763,N,01319.904,E,038.9,234.6,171118,000.0,W*7C
$GPGGA,063615.803,5234.755,N,01319.892,E,1,12,1.0,0.0,M,0.0,M,,*6C
$GPGSA,A,3,01,02,03,04,05,06,07,08,09,10,11,12,1.0,1.0,1.0*30
$GPRMC,063615.803,A,5234.755,N,01319.892,E,038.9,234.6,171118,000.0,W*76
$GPGGA,063616.803,5234.747,N,01319.881,E,1,12,1.0,0.0,M,0.0,M,,*6E
$GPGSA,A,3,01,02,03,04,05,06,07,08,09,10,11,12,1.0,1.0,1.0*30
$GPRMC,063616.803,A,5234.747,N,01319.881,E,038.9,234.6,171118,000.0,W*74
$GPGGA,063617.803,5234.739,N,01319.869,E,1,12,1.0,0.0,M,0.0,M,,*60
$GPGSA,A,3,01,02,03,04,05,06,07,08,09,10,11,12,1.0,1.0,1.0*30
$GPRMC,063617.803,A,5234.739,N,01319.869,E,038.9,234.6,171118,000.0,W*7A
$GPGGA,063618.803,5234.730,N,01319.858,E,1,12,1.0,0.0,M,0.0,M,,*64
$GPGSA,A,3,01,02,03,04,05,06,07,08,09,10,11,12,1.0,1.0,1.0*30
$GPRMC,063618.803,A,5234.730,N,01319.858,E,038.9,234.6,171118,000.0,W*7E
$GPGGA,063619.803,5234.722,N,01319.846,E,1,12,1.0,0.0,M,0.0,M,,*69
$GPGSA,A,3,01,02,03,04,05,06,07,08,09,10,11,12,1.0,1.0,1.0*30
$GPRMC,063619.803,A,5234.722,N,01319.846,E,038.9,234.6,171118,000.0,W*73
$GPGGA,063620.803,5234.714,N,01319.834,E,1,12,1.0,0.0,M,0.0,M,,*63
$GPGSA,A,3,01,02,03,04,05,06,07,08,09,10,11,12,1.0,1.0,1.0*30
$GPRMC,063620.803,A,5234.714,N,01319.834,E,038.9,234.6,171118,000.0,W*79
$GPGGA,063621.803,5234.706,N,01319.823,E,1,12,1.0,0.0,M,0.0,M,,*67
$GPGSA,A,3,01,02,03,04,05,06,07,08,09,10,11,12,1.0,1.0,1.0*30
$GPRMC,063621.803,A,5234.706,N,01319.823,E,038.9,234.6,171118,000.0,W*7D
$GPGGA,063622.803,5234.698,N,01319.811,E,1,12,1.0,0.0,M,0.0,M,,*63
$GPGSA,A,3,01,02,03,04,05,06,07,08,09,10,11,12,1.0,1.0,1.0*30
$GPRMC,063622.803,A,5234.698,N,01319.811,E,038.9,234.6,171118,000.0,W*79
$GPGGA,063623.803,5234.689,N,01319.800,E,1,12,1.0,0.0,M,0.0,M,,*62
$GPGSA,A,3,01,02,03,04,05,06,07,08,09,10,11,12,1.0,1.0,1.0*30
$GPRMC,063623.803,A,5234.689,N,01319.800,E,038.9,234.6,171118,000.0,W*78
$GPGGA,063624.803,5234.681,N,01319.788,E,1,12,1.0,0.0,M,0.0,M,,*62
$GPGSA,A,3,01,02,03,04,05,06,07,08,09,10,11,12,1.0,1.0,1.0*30
$GPRMC,063624.803,A,5234.681,N,01319.788,E,038.9,234.6,171118,000.0,W*78
$GPGGA,063625.803,5234.673,N,01319.777,E,1,12,1.0,0.0,M,0.0,M,,*6E
$GPGSA,A,3,01,02,03,04,05,06,07,08,09,10,11,12,1.0,1.0,1.0*30
$GPRMC,063625.803,A,5234.673,N,01319.777,E,038.9,221.1,171118,000.0,W*77
$GPGGA,063626.803,5234.664,N,01319.768,E,1,12,1.0,0.0,M,0.0,M,,*65
$GPGSA,A,3,01,02,03,04,05,06,07,08,09,10,11,12,1.0,1.0,1.0*30
$GPRMC,063626.803,A,5234.664,N,01319.768,E,038.9,221.1,171118,000.0,W*7C
$GPGGA,063627.803,5234.654,N,01319.760,E,1,12,1.0,0.0,M,0.0,M,,*6F
$GPGSA,A,3,01,02,03,04,05,06,07,08,09,10,11,12,1.0,1.0,1.0*30
$GPRMC,063627.803,A,5234.654,N,01319.760,E,038.9,221.1,171118,000.0,W*76
$GPGGA,063628.803,5234.644,N,01319.752,E,1,12,1.0,0.0,M,0.0,M,,*60
$GPGSA,A,3,01,02,03,04,05,06,07,08,09,10,11,12,1.0,1.0,1.0*30
$GPRMC,063628.803,A,5234.644,N,01319.752,E,038.9,221.1,171118,000.0,W*79
$GPGGA,063629.803,5234.635,N,01319.743,E,1,12,1.0,0.0,M,0.0,M,,*67
$GPGSA,A,3,01,02,03,04,05,06,07,08,09,10,11,12,1.0,1.0,1.0*30
$GPRMC,063629.803,A,5234.635,N,01319.743,E,038.9,221.1,171118,000.0,W*7E
$GPGGA,063630.803,5234.625,N,01319.735,E,1,12,1.0,0.0,M,0.0,M,,*6F
$GPGSA,A,3,01,02,03,04,05,06,07,08,09,10,11,12,1.0,1.0,1.0*30
$GPRMC,063630.803,A,5234.625,N,01319.735,E,038.9,221.1,171118,000.0,W*76
$GPGGA,063631.803,5234.616,N,01319.726,E,1,12,1.0,0.0,M,0.0,M,,*6C
$GPGSA,A,3,01,02,03,04,05,06,07,08,09,10,11,12,1.0,1.0,1.0*30
$GPRMC,063631.803,A,5234.616,N,01319.726,E,038.9,221.1,171118,000.0,W*75
$GPGGA,063632.803,5234.606,N,01319.718,E,1,12,1.0,0.0,M,0.0,M,,*63
$GPGSA,A,3,01,02,03,04,05,06,07,08,09,10,11,12,1.0,1.0,1.0*30
$GPRMC,063632.803,A,5234.606,N,01319.718,E,038.9,221.1,171118,000.0,W*7A
$GPGGA,063633.803,5234.597,N,01319.710,E,1,12,1.0,0.0,M,0.0,M,,*61
$GPGSA,A,3,01,02,03,04,05,06,07,08,09,10,11,12,1.0,1.0,1.0*30
$GPRMC,063633.803,A,5234.597,N,01319.710,E,038.9,221.1,171118,000.0,W*78
$GPGGA,063634.803,5234.587,N,01319.701,E,1,12,1.0,0.0,M,0.0,M,,*67
$GPGSA,A,3,01,02,03,04,05,06,07,08,09,10,11,12,1.0,1.0,1.0*30
$GPRMC,063634.803,A,5234.587,N,01319.701,E,038.9,221.1,171118,000.0,W*7E
$GPGGA,063635.803,5234.578,N,01319.693,E,1,12,1.0,0.0,M,0.0,M,,*6C
$GPGSA,A,3,01,02,03,04,05,06,07,08,09,10,11,12,1.0,1.0,1.0*30
$GPRMC,063635.803,A,5234.578,N,01319.693,E,038.9,221.1,171118,000.0,W*75
$GPGGA,063636.803,5234.568,N,01319.685,E,1,12,1.0,0.0,M,0.0,M,,*69
$GPGSA,A,3,01,02,03,04,05,06,07,08,09,10,11,12,1.0,1.0,1.0*30
$GPRMC,063636.803,A,5234.568,N,01319.685,E,038.9,221.1,171118,000.0,W*70
$GPGGA,063637.803,5234.559,N,01319.676,E,1,12,1.0,0.0,M,0.0,M,,*66
$GPGSA,A,3,01,02,03,04,05,06,07,08,09,10,11,12,1.0,1.0,1.0*30
$GPRMC,063637.803,A,5234.559,N,01319.676,E,038.9,221.1,171118,000.0,W*7F
$GPGGA,063638.803,5234.549,N,01319.668,E,1,12,1.0,0.0,M,0.0,M,,*67
$GPGSA,A,3,01,02,03,04,05,06,07,08,09,10,11,12,1.0,1.0,1.0*30
$GPRMC,063638.803,A,5234.549,N,01319.668,E,038.9,221.1,171118,000.0,W*7E
$GPGGA,063639.803,5234.540,N,01319.660,E,1,12,1.0,0.0,M,0.0,M,,*67
$GPGSA,A,3,01,02,03,04,05,06,07,08,09,10,11,12,1.0,1.0,1.0*30
$GPRMC,063639.803,A,5234.540,N,01319.660,E,038.9,221.1,171118,000.0,W*7E
$GPGGA,063640.803,5234.530,N,01319.651,E,1,12,1.0,0.0,M,0.0,M,,*6C
$GPGSA,A,3,01,02,03,04,05,06,07,08,09,10,11,12,1.0,1.0,1.0*30
$GPRMC,063640.803,A,5234.530,N,01319.651,E,038.9,221.1,171118,000.0,W*75
$GPGGA,063641.803,5234.521,N,01319.643,E,1,12,1.0,0.0,M,0.0,M,,*6E
$GPGSA,A,3,01,02,03,04,05,06,07,08,09,10,11,12,1.0,1.0,1.0*30
$GPRMC,063641.803,A,5234.521,N,01319.643,E,038.9,221.1,171118,000.0,W*77
$GPGGA,063642.803,5234.511,N,01319.635,E,1,12,1.0,0.0,M,0.0,M,,*6F
$GPGSA,A,3,01,02,03,04,05,06,07,08,09,10,11,12,1.0,1.0,1.0*30
$GPRMC,063642.803,A,5234.511,N,01319.635,E,038.9,221.1,171118,000.0,W*76
$GPGGA,063643.803,5234.502,N,01319.626,E,1,12,1.0,0.0,M,0.0,M,,*6E
$GPGSA,A,3,01,02,03,04,05,06,07,08,09,10,11,12,1.0,1.0,1.0*30
$GPRMC,063643.803,A,5234.502,N,01319.626,E,038.9,221.1,171118,000.0,W*77
$GPGGA,063644.803,5234.492,N,01319.618,E,1,12,1.0,0.0,M,0.0,M,,*6C
$GPGSA,A,3,01,02,03,04,05,06,07,08,09,10,11,12,1.0,1.0,1.0*30
$GPRMC,063644.803,A,5234.492,N,01319.618,E,038.9,221.1,171118,000.0,W*75
$GPGGA,063645.803,5234.483,N,01319.610,E,1,12,1.0,0.0,M,0.0,M,,*65
$GPGSA,A,3,01,02,03,04,05,06,07,08,09,10,11,12,1.0,1.0,1.0*30
$GPRMC,063645.803,A,5234.483,N,01319.610,E,038.9,221.1,171118,000.0,W*7C
$GPGGA,063646.803,5234.473,N,01319.601,E,1,12,1.0,0.0,M,0.0,M,,*69
$GPGSA,A,3,01,02,03,04,05,06,07,08,09,10,11,12,1.0,1.0,1.0*30
$GPRMC,063646.803,A,5234.473,N,01319.601,E,038.9,221.1,171118,000.0,W*70
$GPGGA,063647.803,5234.464,N,01319.593,E,1,12,1.0,0.0,M,0.0,M,,*66
$GPGSA,A,3,01,02,03,04,05,06,07,08,09,10,11,12,1.0,1.0,1.0*30
$GPRMC,063647.803,A,5234.464,N,01319.593,E,038.9,221.1,171118,000.0,W*7F
$GPGGA,063648.803,5234.454,N,01319.584,E,1,12,1.0,0.0,M,0.0,M,,*6C
$GPGSA,A,3,01,02,03,04,05,06,07,08,09,10,11,12,1.0,1.0,1.0*30
$GPRMC,063648.803,A,5234.454,N,01319.584,E,038.9,221.1,171118,000.0,W*75
$GPGGA,063649.803,5234.445,N,01319.576,E,1,12,1.0,0.0,M,0.0,M,,*60
$GPGSA,A,3,01,02,03,04,05,06,07,08,09,10,11,12,1.0,1.0,1.0*30
$GPRMC,063649.803,A,5234.445,N,01319.576,E,038.9,221.1,171118,000.0,W*79
$GPGGA,063650.803,5234.435,N,01319.568,E,1,12,1.0,0.0,M,0.0,M,,*60
$GPGSA,A,3,01,02,03,04,05,06,07,08,09,10,11,12,1.0,1.0,1.0*30
$GPRMC,063650.803,A,5234.435,N,01319.568,E,038.9,221.1,171118,000.0,W*79
$GPGGA,063651.803,5234.425,N,01319.559,E,1,12,1.0,0.0,M,0.0,M,,*62
$GPGSA,A,3,01,02,03,04,05,06,07,08,09,10,11,12,1.0,1.0,1.0*30
$GPRMC,063651.803,A,5234.425,N,01319.559,E,038.9,221.1,171118,000.0,W*7B
$GPGGA,063652.803,5234.416,N,01319.551,E,1,12,1.0,0.0,M,0.0,M,,*69
$GPGSA,A,3,01,02,03,04,05,06,07,08,09,10,11,12,1.0,1.0,1.0*30
$GPRMC,063652.803,A,5234.416,N,01319.551,E,038.9,221.1,171118,000.0,W*70
$GPGGA,063653.803,5234.406,N,01319.543,E,1,12,1.0,0.0,M,0.0,M,,*6A
$GPGSA,A,3,01,02,03,04,05,06,07,08,09,10,11,12,1.0,1.0,1.0*30
$GPRMC,063653.803,A,5234.406,N,01319.543,E,038.9,221.1,171118,000.0,W*73
$GPGGA,063654.803,5234.397,N,01319.534,E,1,12,1.0,0.0,M,0.0,M,,*62
$GPGSA,A,3,01,02,03,04,05,06,07,08,09,10,11,12,1.0,1.0,1.0*30
$GPRMC,063654.803,A,5234.397,N,01319.534,E,038.9,221.1,171118,000.0,W*7B
$GPGGA,063655.803,5234.387,N,01319.526,E,1,12,1.0,0.0,M,0.0,M,,*61
$GPGSA,A,3,01,02,03,04,05,06,07,08,09,10,11,12,1.0,1.0,1.0*30
$GPRMC,063655.803,A,5234.387,N,01319.526,E,038.9,221.1,171118,000.0,W*78
$GPGGA,063656.803,5234.378,N,01319.518,E,1,12,1.0,0.0,M,0.0,M,,*6F
$GPGSA,A,3,01,02,03,04,05,06,07,08,09,10,11,12,1.0,1.0,1.0*30
$GPRMC,063656.803,A,5234.378,N,01319.518,E,038.9,221.1,171118,000.0,W*76
$GPGGA,063657.803,5234.368,N,01319.509,E,1,12,1.0,0.0,M,0.0,M,,*6F
$GPGSA,A,3,01,02,03,04,05,06,07,08,09,10,11,12,1.0,1.0,1.0*30
$GPRMC,063657.803,A,5234.368,N,01319.509,E,038.9,221.1,171118,000.0,W*76
$GPGGA,063658.803,5234.359,N,01319.501,E,1,12,1.0,0.0,M,0.0,M,,*6A
$GPGSA,A,3,01,02,03,04,05,06,07,08,09,10,11,12,1.0,1.0,1.0*30
$GPRMC,063658.803,A,5234.359,N,01319.501,E,038.9,221.1,171118,000.0,W*73
$GPGGA,063659.803,5234.349,N,01319.493,E,1,12,1.0,0.0,M,0.0,M,,*60
$GPGSA,A,3,01,02,03,04,05,06,07,08,09,10,11,12,1.0,1.0,1.0*30
$GPRMC,063659.803,A,5234.349,N,01319.493,E,038.9,221.1,171118,000.0,W*79
$GPGGA,063700.803,5234.340,N,01319.484,E,1,12,1.0,0.0,M,0.0,M,,*62
$GPGSA,A,3,01,02,03,04,05,06,07,08,09,10,11,12,1.0,1.0,1.0*30
$GPRMC,063700.803,A,5234.340,N,01319.484,E,038.9,221.1,171118,000.0,W*7B
$GPGGA,063701.803,5234.330,N,01319.476,E,1,12,1.0,0.0,M,0.0,M,,*69
$GPGSA,A,3,01,02,03,04,05,06,07,08,09,10,11,12,1.0,1.0,1.0*30
$GPRMC,063701.803,A,5234.330,N,01319.476,E,038.9,221.1,171118,000.0,W*70
$GPGGA,063702.803,5234.321,N,01319.468,E,1,12,1.0,0.0,M,0.0,M,,*65
$GPGSA,A,3,01,02,03,04,05,06,07,08,09,10,11,12,1.0,1.0,1.0*30
$GPRMC,063702.803,A,5234.321,N,01319.468,E,038.9,221.1,171118,000.0,W*7C
$GPGGA,063703.803,5234.311,N,01319.459,E,1,12,1.0,0.0,M,0.0,M,,*65
$GPGSA,A,3,01,02,03,04,05,06,07,08,09,10,11,12,1.0,1.0,1.0*30
$GPRMC,063703.803,A,5234.311,N,01319.459,E,038.9,221.1,171118,000.0,W*7C
$GPGGA,063704.803,5234.302,N,01319.451,E,1,12,1.0,0.0,M,0.0,M,,*68
$GPGSA,A,3,01,02,03,04,05,06,07,08,09,10,11,12,1.0,1.0,1.0*30
$GPRMC,063704.803,A,5234.302,N,01319.451,E,038.9,221.1,171118,000.0,W*71
$GPGGA,063705.803,5234.292,N,01319.442,E,1,12,1.0,0.0,M,0.0,M,,*63
$GPGSA,A,3,01,02,03,04,05,06,07,08,09,10,11,12,1.0,1.0,1.0*30
$GPRMC,063705.803,A,5234.292,N,01319.442,E,038.9,221.1,171118,000.0,W*7A
$GPGGA,063706.803,5234.283,N,01319.434,E,1,12,1.0,0.0,M,0.0,M,,*61
$GPGSA,A,3,01,02,03,04,05,06,07,08,09,10,11,12,1.0,1.0,1.0*30
$GPRMC,063706.803,A,5234.283,N,01319.434,E,038.9,221.1,171118,000.0,W*78
$GPGGA,063707.803,5234.273,N,01319.426,E,1,12,1.0,0.0,M,0.0,M,,*6C
$GPGSA,A,3,01,02,03,04,05,06,07,08,09,10,11,12,1.0,1.0,1.0*30
$GPRMC,063707.803,A,5234.273,N,01319.426,E,038.9,221.1,171118,000.0,W*75
$GPGGA,063708.803,5234.264,N,01319.417,E,1,12,1.0,0.0,M,0.0,M,,*67
$GPGSA,A,3,01,02,03,04,05,06,07,08,09,10,11,12,1.0,1.0,1.0*30
$GPRMC,063708.803,A,5234.264,N,01319.417,E,038.9,221.1,171118,000.0,W*7E
$GPGGA,063709.803,5234.254,N,01319.409,E,1,12,1.0,0.0,M,0.0,M,,*6A
$GPGSA,A,3,01,02,03,04,05,06,07,08,09,10,11,12,1.0,1.0,1.0*30
$GPRMC,063709.803,A,5234.254,N,01319.409,E,038.9,221.1,171118,000.0,W*73
$GPGGA,063710.803,5234.245,N,01319.401,E,1,12,1.0,0.0,M,0.0,M,,*6A
$GPGSA,A,3,01,02,03,04,05,06,07,08,09,10,11,12,1.0,1.0,1.0*30
$GPRMC,063710.803,A,5234.245,N,01319.401,E,038.9,221.1,171118,000.0,W*73
$GPGGA,063711.803,5234.235,N,01319.392,E,1,12,1.0,0.0,M,0.0,M,,*61
$GPGSA,A,3,01,02,03,04,05,06,07,08,09,10,11,12,1.0,1.0,1.0*30
$GPRMC,063711.803,A,5234.235,N,01319.392,E,038.9,221.1,171118,000.0,W*78
$GPGGA,063712.803,5234.225,N,01319.384,E,1,12,1.0,0.0,M,0.0,M,,*64
$GPGSA,A,3,01,02,03,04,05,06,07,08,09,10,11,12,1.0,1.0,1.0*30
$GPRMC,063712.803,A,5234.225,N,01319.384,E,038.9,221.1,171118,000.0,W*7D
$GPGGA,063713.803,5234.216,N,01319.376,E,1,12,1.0,0.0,M,0.0,M,,*68
$GPGSA,A,3,01,02,03,04,05,06,07,08,09,10,11,12,1.0,1.0,1.0*30
$GPRMC,063713.803,A,5234.216,N,01319.376,E,038.9,221.1,171118,000.0,W*71
$GPGGA,063714.803,5234.206,N,01319.367,E,1,12,1.0,0.0,M,0.0,M,,*6E
$GPGSA,A,3,01,02,03,04,05,06,07,08,09,10,11,12,1.0,1.0,1.0*30
$GPRMC,063714.803,A,5234.206,N,01319.367,E,038.9,221.1,171118,000.0,W*77
$GPGGA,063715.803,5234.197,N,01319.359,E,1,12,1.0,0.0,M,0.0,M,,*69
$GPGSA,A,3,01,02,03,04,05,06,07,08,09,10,11,12,1.0,1.0,1.0*30
$GPRMC,063715.803,A,5234.197,N,01319.359,E,038.9,221.1,171118,000.0,W*70
$GPGGA,063716.803,5234.187,N,01319.351,E,1,12,1.0,0.0,M,0.0,M,,*63
$GPGSA,A,3,01,02,03,04,05,06,07,08,09,10,11,12,1.0,1.0,1.0*30
$GPRMC,063716.803,A,5234.187,N,01319.351,E,038.9,221.1,171118,000.0,W*7A
$GPGGA,063717.803,5234.178,N,01319.342,E,1,12,1.0,0.0,M,0.0,M,,*60
$GPGSA,A,3,01,02,03,04,05,06,07,08,09,10,11,12,1.0,1.0,1.0*30
$GPRMC,063717.803,A,5234.178,N,01319.342,E,038.9,221.1,171118,000.0,W*79
$GPGGA,063718.803,5234.168,N,01319.334,E,1,12,1.0,0.0,M,0.0,M,,*6F
$GPGSA,A,3,01,02,03,04,05,06,07,08,09,10,11,12,1.0,1.0,1.0*30
$GPRMC,063718.803,A,5234.168,N,01319.334,E,038.9,221.1,171118,000.0,W*76
$GPGGA,063719.803,5234.159,N,01319.326,E,1,12,1.0,0.0,M,0.0,M,,*6F
$GPGSA,A,3,01,02,03,04,05,06,07,08,09,10,11,12,1.0,1.0,1.0*30
$GPRMC,063719.803,A,5234.159,N,01319.326,E,038.9,221.1,171118,000.0,W*76
$GPGGA,063720.803,5234.149,N,01319.317,E,1,12,1.0,0.0,M,0.0,M,,*66
$GPGSA,A,3,01,02,03,04,05,06,07,08,09,10,11,12,1.0,1.0,1.0*30
$GPRMC,063720.803,A,5234.149,N,01319.317,E,038.9,221.1,171118,000.0,W*7F
$GPGGA,063721.803,5234.140,N,01319.309,E,1,12,1.0,0.0,M,0.0,M,,*61
$GPGSA,A,3,01,02,03,04,05,06,07,08,09,10,11,12,1.0,1.0,1.0*30
$GPRMC,063721.803,A,5234.140,N,01319.309,E,038.9,221.1,171118,000.0,W*78
$GPGGA,063722.803,5234.130,N,01319.300,E,1,12,1.0,0.0,M,0.0,M,,*6C
$GPGSA,A,3,01,02,03,04,05,06,07,08,09,10,11,12,1.0,1.0,1.0*30
$GPRMC,063722.803,A,5234.130,N,01319.300,E,038.9,221.1,171118,000.0,W*75
$GPGGA,063723.803,5234.121,N,01319.292,E,1,12,1.0,0.0,M,0.0,M,,*67
$GPGSA,A,3,01,02,03,04,05,06,07,08,09,10,11,12,1.0,1.0,1.0*30
$GPRMC,063723.803,A,5234.121,N,01319.292,E,038.9,221.1,171118,000.0,W*7E
$GPGGA,063724.803,5234.111,N,01319.284,E,1,12,1.0,0.0,M,0.0,M,,*64
$GPGSA,A,3,01,02,03,04,05,06,07,08,09,10,11,12,1.0,1.0,1.0*30
$GPRMC,063724.803,A,5234.111,N,01319.284,E,038.9,221.1,171118,000.0,W*7D
$GPGGA,063725.803,5234.102,N,01319.275,E,1,12,1.0,0.0,M,0.0,M,,*69
$GPGSA,A,3,01,02,03,04,05,06,07,08,09,10,11,12,1.0,1.0,1.0*30
$GPRMC,063725.803,A,5234.102,N,01319.275,E,038.9,221.1,171118,000.0,W*70
$GPGGA,063726.803,5234.092,N,01319.267,E,1,12,1.0,0.0,M,0.0,M,,*61
$GPGSA,A,3,01,02,03,04,05,06,07,08,09,10,11,12,1.0,1.0,1.0*30
$GPRMC,063726.803,A,5234.092,N,01319.267,E,038.9,221.1,171118,000.0,W*78
$GPGGA,063727.803,5234.083,N,01319.259,E,1,12,1.0,0.0,M,0.0,M,,*6D
$GPGSA,A,3,01,02,03,04,05,06,07,08,09,10,11,12,1.0,1.0,1.0*30
$GPRMC,063727.803,A,5234.083,N,01319.259,E,038.9,221.1,171118,000.0,W*74
$GPGGA,063728.803,5234.073,N,01319.250,E,1,12,1.0,0.0,M,0.0,M,,*64
$GPGSA,A,3,01,02,03,04,05,06,07,08,09,10,11,12,1.0,1.0,1.0*30
$GPRMC,063728.803,A,5234.073,N,01319.250,E,038.9,221.1,171118,000.0,W*7D
$GPGGA,063729.803,5234.064,N,01319.242,E,1,12,1.0,0.0,M,0.0,M,,*60
$GPGSA,A,3,01,02,03,04,05,06,07,08,09,10,11,12,1.0,1.0,1.0*30
$GPRMC,063729.803,A,5234.064,N,01319.242,E,038.9,221.1,171118,000.0,W*79
$GPGGA,063730.803,5234.054,N,01319.234,E,1,12,1.0,0.0,M,0.0,M,,*6A
$GPGSA,A,3,01,02,03,04,05,06,07,08,09,10,11,12,1.0,1.0,1.0*30
$GPRMC,063730.803,A,5234.054,N,01319.234,E,038.9,221.1,171118,000.0,W*73
$GPGGA,063731.803,5234.045,N,01319.225,E,1,12,1.0,0.0,M,0.0,M,,*6B
$GPGSA,A,3,01,02,03,04,05,06,07,08,09,10,11,12,1.0,1.0,1.0*30
$GPRMC,063731.803,A,5234.045,N,01319.225,E,038.9,221.1,171118,000.0,W*72
$GPGGA,063732.803,5234.035,N,01319.217,E,1,12,1.0,0.0,M,0.0,M,,*6E
$GPGSA,A,3,01,02,03,04,05,06,07,08,09,10,11,12,1.0,1.0,1.0*30
$GPRMC,063732.803,A,5234.035,N,01319.217,E,038.9,221.1,171118,000.0,W*77
$GPGGA,063733.803,5234.026,N,01319.209,E,1,12,1.0,0.0,M,0.0,M,,*62
$GPGSA,A,3,01,02,03,04,05,06,07,08,09,10,11,12,1.0,1.0,1.0*30
$GPRMC,063733.803,A,5234.026,N,01319.209,E,038.9,221.1,171118,000.0,W*7B
$GPGGA,063734.803,5234.016,N,01319.200,E,1,12,1.0,0.0,M,0.0,M,,*6F
$GPGSA,A,3,01,02,03,04,05,06,07,08,09,10,11,12,1.0,1.0,1.0*30
$GPRMC,063734.803,A,5234.016,N,01319.200,E,038.9,221.1,171118,000.0,W*76
$GPGGA,063735.803,5234.006,N,01319.192,E,1,12,1.0,0.0,M,0.0,M,,*67
$GPGSA,A,3,01,02,03,04,05,06,07,08,09,10,11,12,1.0,1.0,1.0*30
$GPRMC,063735.803,A,5234.006,N,01319.192,E,038.9,221.1,171118,000.0,W*7E
$GPGGA,063736.803,5233.997,N,01319.184,E,1,12,1.0,0.0,M,0.0,M,,*65
$GPGSA,A,3,01,02,03,04,05,06,07,08,09,10,11,12,1.0,1.0,1.0*30
$GPRMC,063736.803,A,5233.997,N,01319.184,E,038.9,221.1,171118,000.0,W*7C
$GPGGA,063737.803,5233.987,N,01319.175,E,1,12,1.0,0.0,M,0.0,M,,*6B
$GPGSA,A,3,01,02,03,04,05,06,07,08,09,10,11,12,1.0,1.0,1.0*30
$GPRMC,063737.803,A,5233.987,N,01319.175,E,038.9,221.1,171118,000.0,W*72
$GPGGA,063738.803,5233.978,N,01319.167,E,1,12,1.0,0.0,M,0.0,M,,*67
$GPGSA,A,3,01,02,03,04,05,06,07,08,09,10,11,12,1.0,1.0,1.0*30
$GPRMC,063738.803,A,5233.978,N,01319.167,E,038.9,221.1,171118,000.0,W*7E
$GPGGA,063739.803,5233.968,N,01319.158,E,1,12,1.0,0.0,M,0.0,M,,*6B
$GPGSA,A,3,01,02,03,04,05,06,07,08,09,10,11,12,1.0,1.0,1.0*30
$GPRMC,063739.803,A,5233.968,N,01319.158,E,038.9,221.1,171118,000.0,W*72
$GPGGA,063740.803,5233.959,N,01319.150,E,1,12,1.0,0.0,M,0.0,M,,*6F
$GPGSA,A,3,01,02,03,04,05,06,07,08,09,10,11,12,1.0,1.0,1.0*30
$GPRMC,063740.803,A,5233.959,N,01319.150,E,038.9,221.1,171118,000.0,W*76
$GPGGA,063741.803,5233.949,N,01319.142,E,1,12,1.0,0.0,M,0.0,M,,*6C
$GPGSA,A,3,01,02,03,04,05,06,07,08,09,10,11,12,1.0,1.0,1.0*30
$GPRMC,063741.803,A,5233.949,N,01319.142,E,038.9,221.1,171118,000.0,W*75
$GPGGA,063742.803,5233.940,N,01319.133,E,1,12,1.0,0.0,M,0.0,M,,*60
$GPGSA,A,3,01,02,03,04,05,06,07,08,09,10,11,12,1.0,1.0,1.0*30
$GPRMC,063742.803,A,5233.940,N,01319.133,E,038.9,221.1,171118,000.0,W*79
$GPGGA,063743.803,5233.930,N,01319.125,E,1,12,1.0,0.0,M,0.0,M,,*61
$GPGSA,A,3,01,02,03,04,05,06,07,08,09,10,11,12,1.0,1.0,1.0*30
$GPRMC,063743.803,A,5233.930,N,01319.125,E,038.9,221.1,171118,000.0,W*78
$GPGGA,063744.803,5233.921,N,01319.117,E,1,12,1.0,0.0,M,0.0,M,,*67
$GPGSA,A,3,01,02,03,04,05,06,07,08,09,10,11,12,1.0,1.0,1.0*30
$GPRMC,063744.803,A,5233.921,N,01319.117,E,038.9,221.1,171118,000.0,W*7E
$GPGGA,063745.803,5233.911,N,01319.108,E,1,12,1.0,0.0,M,0.0,M,,*6B
$GPGSA,A,3,01,02,03,04,05,06,07,08,09,10,11,12,1.0,1.0,1.0*30
$GPRMC,063745.803,A,5233.911,N,01319.108,E,038.9,221.1,171118,000.0,W*72
$GPGGA,063746.803,5233.902,N,01319.100,E,1,12,1.0,0.0,M,0.0,M,,*62
$GPGSA,A,3,01,02,03,04,05,06,07,08,09,10,11,12,1.0,1.0,1.0*30
$GPRMC,063746.803,A,5233.902,N,01319.100,E,038.9,221.1,171118,000.0,W*7B
$GPGGA,063747.803,5233.892,N,01319.092,E,1,12,1.0,0.0,M,0.0,M,,*61
$GPGSA,A,3,01,02,03,04,05,06,07,08,09,10,11,12,1.0,1.0,1.0*30
$GPRMC,063747.803,A,5233.892,N,01319.092,E,038.9,221.1,171118,000.0,W*78
$GPGGA,063748.803,5233.883,N,01319.083,E,1,12,1.0,0.0,M,0.0,M,,*6E
$GPGSA,A,3,01,02,03,04,05,06,07,08,09,10,11,12,1.0,1.0,1.0*30
$GPRMC,063748.803,A,5233.883,N,01319.083,E,038.9,221.1,171118,000.0,W*77
$GPGGA,063749.803,5233.873,N,01319.075,E,1,12,1.0,0.0,M,0.0,M,,*69
$GPGSA,A,3,01,02,03,04,05,06,07,08,09,10,11,12,1.0,1.0,1.0*30
$GPRMC,063749.803,A,5233.873,N,01319.075,E,038.9,221.1,171118,000.0,W*70
$GPGGA,063750.803,5233.864,N,01319.067,E,1,12,1.0,0.0,M,0.0,M,,*64
$GPGSA,A,3,01,02,03,04,05,06,07,08,09,10,11,12,1.0,1.0,1.0*30
$GPRMC,063750.803,A,5233.864,N,01319.067,E,038.9,221.1,171118,000.0,W*7D
$GPGGA,063751.803,5233.854,N,01319.058,E,1,12,1.0,0.0,M,0.0,M,,*6A
$GPGSA,A,3,01,02,03,04,05,06,07,08,09,10,11,12,1.0,1.0,1.0*30
$GPRMC,063751.803,A,5233.854,N,01319.058,E,038.9,221.1,171118,000.0,W*73
$GPGGA,063752.803,5233.845,N,01319.050,E,1,12,1.0,0.0,M,0.0,M,,*61
$GPGSA,A,3,01,02,03,04,05,06,07,08,09,10,11,12,1.0,1.0,1.0*30
$GPRMC,063752.803,A,5233.845,N,01319.050,E,038.9,221.1,171118,000.0,W*78
$GPGGA,063753.803,5233.835,N,01319.042,E,1,12,1.0,0.0,M,0.0,M,,*64
$GPGSA,A,3,01,02,03,04,05,06,07,08,09,10,11,12,1.0,1.0,1.0*30
$GPRMC,063753.803,A,5233.835,N,01319.042,E,038.9,221.1,171118,000.0,W*7D
$GPGGA,063754.803,5233.826,N,01319.033,E,1,12,1.0,0.0,M,0.0,M,,*67
$GPGSA,A,3,01,02,03,04,05,06,07,08,09,10,11,12,1.0,1.0,1.0*30
$GPRMC,063754.803,A,5233.826,N,01319.033,E,038.9,221.1,171118,000.0,W*7E
$GPGGA,063755.803,5233.816,N,01319.025,E,1,12,1.0,0.0,M,0.0,M,,*62
$GPGSA,A,3,01,02,03,04,05,06,07,08,09,10,11,12,1.0,1.0,1.0*30
$GPRMC,063755.803,A,5233.816,N,01319.025,E,038.9,221.1,171118,000.0,W*7B
$GPGGA,063756.803,5233.806,N,01319.016,E,1,12,1.0,0.0,M,0.0,M,,*60
$GPGSA,A,3,01,02,03,04,05,06,07,08,09,10,11,12,1.0,1.0,1.0*30
$GPRMC,063756.803,A,5233.806,N,01319.016,E,038.9,221.1,171118,000.0,W*79
$GPGGA,063757.803,5233.797,N,01319.008,E,1,12,1.0,0.0,M,0.0,M,,*69
$GPGSA,A,3,01,02,03,04,05,06,07,08,09,10,11,12,1.0,1.0,1.0*30
$GPRMC,063757.803,A,5233.797,N,01319.008,E,038.9,221.1,171118,000.0,W*70
$GPGGA,063758.803,5233.787,N,01319.000,E,1,12,1.0,0.0,M,0.0,M,,*6F
$GPGSA,A,3,01,02,03,04,05,06,07,08,09,10,11,12,1.0,1.0,1.0*30
$GPRMC,063758.803,A,5233.787,N,01319.000,E,038.9,221.1,171118,000.0,W*76
$GPGGA,063759.803,5233.778,N,01318.991,E,1,12,1.0,0.0,M,0.0,M,,*6E
$GPGSA,A,3,01,02,03,04,05,06,07,08,09,10,11,12,1.0,1.0,1.0*30
$GPRMC,063759.803,A,5233.778,N,01318.991,E,038.9,221.1,171118,000.0,W*77
$GPGGA,063800.803,5233.768,N,01318.983,E,1,12,1.0,0.0,M,0.0,M,,*6F
$GPGSA,A,3,01,02,03,04,05,06,07,08,09,10,11,12,1.0,1.0,1.0*30
$GPRMC,063800.803,A,5233.768,N,01318.983,E,038.9,221.1,171118,000.0,W*76
$GPGGA,063801.803,5233.759,N,01318.975,E,1,12,1.0,0.0,M,0.0,M,,*65
$GPGSA,A,3,01,02,03,04,05,06,07,08,09,10,11,12,1.0,1.0,1.0*30
$GPRMC,063801.803,A,5233.759,N,01318.975,E,038.9,221.1,171118,000.0,W*7C
$GPGGA,063802.803,5233.749,N,01318.966,E,1,12,1.0,0.0,M,0.0,M,,*65
$GPGSA,A,3,01,02,03,04,05,06,07,08,09,10,11,12,1.0,1.0,1.0*30
$GPRMC,063802.803,A,5233.749,N,01318.966,E,038.9,221.1,171118,000.0,W*7C
$GPGGA,063803.803,5233.740,N,01318.958,E,1,12,1.0,0.0,M,0.0,M,,*60
$GPGSA,A,3,01,02,03,04,05,06,07,08,09,10,11,12,1.0,1.0,1.0*30
$GPRMC,063803.803,A,5233.740,N,01318.958,E,038.9,221.1,171118,000.0,W*79
$GPGGA,063804.803,5233.730,N,01318.950,E,1,12,1.0,0.0,M,0.0,M,,*68
$GPGSA,A,3,01,02,03,04,05,06,07,08,09,10,11,12,1.0,1.0,1.0*30
$GPRMC,063804.803,A,5233.730,N,01318.950,E,038.9,221.1,171118,000.0,W*71
$GPGGA,063805.803,5233.721,N,01318.941,E,1,12,1.0,0.0,M,0.0,M,,*69
$GPGSA,A,3,01,02,03,04,05,06,07,08,09,10,11,12,1.0,1.0,1.0*30
$GPRMC,063805.803,A,5233.721,N,01318.941,E,038.9,221.1,171118,000.0,W*70
$GPGGA,063806.803,5233.711,N,01318.933,E,1,12,1.0,0.0,M,0.0,M,,*6C
$GPGSA,A,3,01,02,03,04,05,06,07,08,09,10,11,12,1.0,1.0,1.0*30
$GPRMC,063806.803,A,5233.711,N,01318.933,E,038.9,221.1,171118,000.0,W*75
$GPGGA,063807.803,5233.702,N,01318.925,E,1,12,1.0,0.0,M,0.0,M,,*68
$GPGSA,A,3,01,02,03,04,05,06,07,08,09,10,11,12,1.0,1.0,1.0*30
$GPRMC,063807.803,A,5233.702,N,01318.925,E,038.9,221.1,171118,000.0,W*71
$GPGGA,063808.803,5233.692,N,01318.916,E,1,12,1.0,0.0,M,0.0,M,,*6F
$GPGSA,A,3,01,02,03,04,05,06,07,08,09,10,11,12,1.0,1.0,1.0*30
$GPRMC,063808.803,A,5233.692,N,01318.916,E,038.9,221.1,171118,000.0,W*76
$GPGGA,063809.803,5233.683,N,01318.908,E,1,12,1.0,0.0,M,0.0,M,,*61
$GPGSA,A,3,01,02,03,04,05,06,07,08,09,10,11,12,1.0,1.0,1.0*30
$GPRMC,063809.803,A,5233.683,N,01318.908,E,038.9,221.1,171118,000.0,W*78
$GPGGA,063810.803,5233.673,N,01318.900,E,1,12,1.0,0.0,M,0.0,M,,*6E
$GPGSA,A,3,01,02,03,04,05,06,07,08,09,10,11,12,1.0,1.0,1.0*30
$GPRMC,063810.803,A,5233.673,N,01318.900,E,038.9,221.1,171118,000.0,W*77
$GPGGA,063811.803,5233.664,N,01318.891,E,1,12,1.0,0.0,M,0.0,M,,*60
$GPGSA,A,3,01,02,03,04,05,06,07,08,09,10,11,12,1.0,1.0,1.0*30
$GPRMC,063811.803,A,5233.664,N,01318.891,E,038.9,221.1,171118,000.0,W*79
$GPGGA,063812.803,5233.654,N,01318.883,E,1,12,1.0,0.0,M,0.0,M,,*63
$GPGSA,A,3,01,02,03,04,05,06,07,08,09,10,11,12,1.0,1.0,1.0*30
$GPRMC,063812.803,A,5233.654,N,01318.883,E,038.9,221.1,171118,000.0,W*7A
$GPGGA,063813.803,5233.645,N,01318.874,E,1,12,1.0,0.0,M,0.0,M,,*6A
$GPGSA,A,3,01,02,03,04,05,06,07,08,09,10,11,12,1.0,1.0,1.0*30
$GPRMC,063813.803,A,5233.645,N,01318.874,E,038.9,221.1,171118,000.0,W*73
$GPGGA,063814.803,5233.635,N,01318.866,E,1,12,1.0,0.0,M,0.0,M,,*69
$GPGSA,A,3,01,02,03,04,05,06,07,08,09,10,11,12,1.0,1.0,1.0*30
$GPRMC,063814.803,A,5233.635,N,01318.866,E,038.9,221.1,171118,000.0,W*70
$GPGGA,063815.803,5233.626,N,01318.858,E,1,12,1.0,0.0,M,0.0,M,,*67
$GPGSA,A,3,01,02,03,04,05,06,07,08,09,10,11,12,1.0,1.0,1.0*30
$GPRMC,063815.803,A,5233.626,N,01318.858,E,038.9,221.1,171118,000.0,W*7E
$GPGGA,063816.803,5233.616,N,01318.849,E,1,12,1.0,0.0,M,0.0,M,,*67
$GPGSA,A,3,01,02,03,04,05,06,07,08,09,10,11,12,1.0,1.0,1.0*30
$GPRMC,063816.803,A,5233.616,N,01318.849,E,038.9,221.1,171118,000.0,W*7E
$GPGGA,063817.803,5233.606,N,01318.841,E,1,12,1.0,0.0,M,0.0,M,,*6F
