$GPGGA,232608.000,5057.1975,N,11134.8332,W,2,8,1.06,781.7,M,-18.1,M,0000,0000*62
$GPGSA,A,3,17,02,25,19,06,12,24,03,,,,,1.33,1.06,0.80*07
$GPGSV,3,1,12,12,73,278,51,02,66,193,51,06,62,070,47,19,40,079,45*7E
$GPGSV,3,2,12,25,31,307,43,48,28,206,47,24,22,224,41,17,22,083,45*77
$GPGSV,3,3,12,03,05,023,28,29,04,268,45,05,04,166,44,31,02,340,33*72
$GPRMC,232608.000,A,5057.1975,N,11134.8332,W,66.82,164.11,180518,,,D*49
$GPGGA,232609.000,5057.1797,N,11134.8250,W,2,8,1.06,782.3,M,-18.1,M,0000,0000*63
$GPGSA,A,3,17,02,25,19,06,12,24,03,,,,,1.33,1.06,0.80*07
$GPGSV,3,1,12,12,73,278,51,02,66,193,51,06,62,070,47,19,40,079,45*7E
$GPGSV,3,2,12,25,31,307,43,48,28,206,47,24,22,224,41,17,22,083,45*77
$GPGSV,3,3,12,03,05,023,30,29,04,268,45,05,04,166,45,31,02,340,33*7A
$GPRMC,232609.000,A,5057.1797,N,11134.8250,W,66.64,164.44,180518,,,D*47
$GFDTA,     6.8,97,3.0,9786,2018/05/18 17:14:19, CH4AB-1047,1*71
$GPGGA,232610.000,5057.1619,N,11134.8172,W,2,8,1.06,782.8,M,-18.1,M,0000,0000*64
$GPGSA,A,3,17,02,25,19,06,12,24,03,,,,,1.33,1.06,0.80*07
$GPGSV,3,1,12,12,73,278,51,02,66,193,51,06,62,070,47,19,40,079,45*7E
$GPGSV,3,2,12,25,31,307,43,48,28,206,47,24,22,224,41,17,22,083,44*76
$GPGSV,3,3,12,03,05,023,31,29,04,268,45,05,04,166,44,31,02,340,34*7D
$GPRMC,232610.000,A,5057.1619,N,11134.8172,W,66.63,164.31,180518,,,D*4E
$GPGGA,232611.000,5057.1442,N,11134.8095,W,2,8,1.10,782.5,M,-18.1,M,0000,0000*6B
$GPGSA,A,3,17,02,25,19,06,12,24,03,,,,,1.73,1.10,1.33*0D
$GPGSV,3,1,12,12,73,278,51,02,66,193,51,06,62,070,47,19,40,079,45*7E
$GPGSV,3,2,12,25,31,307,42,48,28,206,47,24,22,224,41,17,22,083,43*70
$GPGSV,3,3,12,03,05,023,31,29,04,268,46,05,04,166,45,31,02,340,33*78
$GPRMC,232611.000,A,5057.1442,N,11134.8095,W,66.39,164.22,180518,,,D*46
$GFDTA,     6.9,97,3.0,9783,2018/05/18 17:14:20, CH4AB-1047,1*7F
$GPGGA,232612.000,5057.1267,N,11134.8019,W,2,8,1.10,781.6,M,-18.1,M,0000,0000*6D
$GPGSA,A,3,17,02,25,19,06,12,24,03,,,,,1.73,1.10,1.33*0D
$GPGSV,3,1,12,12,73,278,51,02,66,193,51,06,62,070,47,19,40,079,45*7E
$GPGSV,3,2,12,25,31,307,42,48,28,206,47,24,22,224,41,17,22,083,43*70
$GPGSV,3,3,12,03,05,023,31,29,04,268,45,05,04,166,43,31,02,340,33*7D
$GPRMC,232612.000,A,5057.1267,N,11134.8019,W,65.50,164.45,180518,,,D*4D
$GFDTA,     6.8,98,3.0,9864,2018/05/18 17:14:22, CH4AB-1047,1*75
$GPGGA,232613.000,5057.1093,N,11134.7942,W,2,8,1.06,780.8,M,-18.1,M,0000,0000*65
$GPGSA,A,3,17,02,25,19,06,12,24,03,,,,,1.33,1.06,0.80*07
$GPGSV,3,1,12,12,73,278,51,02,66,193,51,06,62,070,47,19,40,079,45*7E
$GPGSV,3,2,12,25,31,307,42,48,28,206,47,24,22,224,41,17,22,083,43*70
$GPGSV,3,3,12,03,05,023,31,29,04,268,46,05,04,166,43,31,02,340,34*79
$GPRMC,232613.000,A,5057.1093,N,11134.7942,W,64.83,164.68,180518,,,D*4D
$GFDBG,  37.7, 675, 10268, 98, 0, 1388,  0.00, 0, 1, 0, 101325, 20*4E
$GPGGA,232614.000,5057.0920,N,11134.7868,W,2,8,1.06,779.8,M,-18.1,M,0000,0000*6D
$GPGSA,A,3,17,02,25,19,06,12,24,03,,,,,1.33,1.06,0.80*07
$GPGSV,3,1,12,12,73,278,51,02,66,193,51,06,62,070,47,19,40,079,45*7E
$GPGSV,3,2,12,25,31,307,42,48,28,206,47,24,22,224,41,17,22,083,44*77
$GPGSV,3,3,12,03,05,023,30,29,04,268,45,05,04,166,43,31,02,340,33*7C
$GPRMC,232614.000,A,5057.0920,N,11134.7868,W,64.60,164.62,180518,,,D*44
$GPGGA,232615.000,5057.0748,N,11134.7792,W,2,8,1.06,778.7,M,-18.1,M,0000,0000*68
$GPGSA,A,3,17,02,25,19,06,12,24,03,,,,,1.33,1.06,0.80*07
$GPGSV,3,1,12,12,73,278,51,02,66,193,51,06,62,070,47,19,40,079,45*7E
$GPGSV,3,2,12,25,31,307,42,48,28,206,47,24,22,224,41,17,22,083,44*77
$GPGSV,3,3,12,03,05,023,37,29,04,268,46,05,04,166,44,31,02,340,35*79
$GPRMC,232615.000,A,5057.0748,N,11134.7792,W,64.10,163.98,180518,,,D*4A
$GFDTA,     6.8,97,3.0,9846,2018/05/18 17:14:25, CH4AB-1047,1*7D
$GPGGA,232616.000,5057.0580,N,11134.7715,W,2,8,1.10,777.8,M,-18.1,M,0000,0000*65
$GPGSA,A,3,17,02,25,19,06,12,24,03,,,,,1.73,1.10,1.33*0D
$GPGSV,3,1,12,12,73,278,51,02,66,193,51,06,62,070,48,19,40,079,45*71
$GPGSV,3,2,12,25,31,307,42,48,28,206,47,24,22,224,41,17,22,083,45*76
$GPGSV,3,3,12,03,05,023,37,29,04,268,47,05,04,166,45,31,02,340,25*78
$GPRMC,232616.000,A,5057.0580,N,11134.7715,W,62.88,163.74,180518,,,D*45
$GPGGA,232617.000,5057.0415,N,11134.7639,W,2,8,1.10,776.8,M,-18.1,M,0000,0000*67
$GPGSA,A,3,17,02,25,19,06,12,24,03,,,,,1.73,1.10,1.33*0D
$GPGSV,3,1,12,12,73,278,51,02,66,193,51,06,62,070,48,19,40,079,45*71
$GPGSV,3,2,12,25,31,307,42,48,28,206,47,24,22,224,41,17,22,083,45*76
$GPGSV,3,3,12,03,05,023,35,29,04,268,39,05,04,166,52,31,02,340,25*75
$GPRMC,232617.000,A,5057.0415,N,11134.7639,W,62.06,164.00,180518,,,D*44
$GFDTA,     6.8,97,3.0,9896,2018/05/18 17:14:26, CH4AB-1047,1*73
$GPGGA,232618.000,5057.0252,N,11134.7564,W,2,8,1.06,775.8,M,-18.1,M,0000,0000*62
$GPGSA,A,3,17,02,25,19,06,12,24,03,,,,,1.33,1.06,0.80*07
$GPGSV,3,1,12,12,73,278,51,02,66,193,51,06,62,070,48,19,40,079,45*71
$GPGSV,3,2,12,25,31,307,42,48,28,206,47,24,22,224,41,17,22,083,45*76
$GPGSV,3,3,12,03,05,023,34,29,04,268,40,05,04,166,51,31,02,340,32*7F
$GPRMC,232618.000,A,5057.0252,N,11134.7564,W,61.39,164.32,180518,,,D*4B
$GFDTA,     6.8,97,3.0,9886,2018/05/18 17:14:28, CH4AB-1047,1*7C
$GPGGA,232619.000,5057.0090,N,11134.7495,W,2,8,1.06,774.9,M,-18.1,M,0000,0000*60
$GPGSA,A,3,17,02,25,19,06,12,24,03,,,,,1.33,1.06,0.80*07
$GPGSV,3,1,12,12,73,278,51,02,66,193,51,06,62,070,48,19,40,079,46*72
$GPGSV,3,2,12,25,31,307,42,48,28,206,47,24,22,224,41,17,22,083,45*76
$GPGSV,3,3,12,03,05,023,33,29,04,268,38,05,04,166,50,31,02,340,36*72
$GPRMC,232619.000,A,5057.0090,N,11134.7495,W,60.63,164.53,180518,,,D*40
$GPGGA,232620.000,5056.9929,N,11134.7426,W,2,8,1.06,774.3,M,-18.1,M,0000,0000*6B
$GPGSA,A,3,17,02,25,19,06,12,24,03,,,,,1.33,1.06,0.80*07
$GPGSV,3,1,12,12,73,278,51,02,66,193,51,06,62,070,48,19,40,079,46*72
$GPGSV,3,2,12,25,31,307,42,48,28,206,47,24,22,224,40,17,22,083,45*77
$GPGSV,3,3,12,03,05,023,33,29,04,268,47,05,04,166,49,31,02,340,36*72
$GPRMC,232620.000,A,5056.9929,N,11134.7426,W,60.13,164.70,180518,,,D*47
$GFDTA,     6.8,97,3.0,9902,2018/05/18 17:14:29, CH4AB-1047,1*70
$GPGGA,232621.000,5056.9768,N,11134.7357,W,2,8,1.06,773.7,M,-18.1,M,0000,0000*63
$GPGSA,A,3,17,02,25,19,06,12,24,03,,,,,1.33,1.06,0.80*07
$GPGSV,3,1,12,12,73,278,51,02,66,193,51,06,62,070,48,19,40,079,46*72
$GPGSV,3,2,12,25,32,307,42,48,28,206,47,24,22,224,41,17,22,083,45*75
$GPGSV,3,3,12,03,05,023,33,29,04,268,46,05,04,166,47,31,02,340,35*7E
$GPRMC,232621.000,A,5056.9768,N,11134.7357,W,60.07,165.29,180518,,,D*44
$GFDTA,     6.9,97,3.0,9905,2018/05/18 17:14:31, CH4AB-1047,1*7F
$GPGGA,232622.000,5056.9609,N,11134.7290,W,2,8,1.06,772.9,M,-18.1,M,0000,0000*63
$GPGSA,A,3,17,02,25,19,06,12,24,03,,,,,1.33,1.06,0.80*07
$GPGSV,3,1,12,12,73,278,51,02,66,193,51,06,62,070,48,19,40,079,46*72
$GPGSV,3,2,12,25,32,307,42,48,28,206,47,24,22,224,41,17,22,083,44*74
$GPGSV,3,3,12,03,05,023,31,29,04,268,47,05,04,166,46,31,02,340,34*7D
$GPRMC,232622.000,A,5056.9609,N,11134.7290,W,59.62,165.35,180518,,,D*4F
$GPGGA,232623.000,5056.9451,N,11134.7225,W,2,8,1.06,772.0,M,-18.1,M,0000,0000*6A
$GPGSA,A,3,17,02,25,19,06,12,24,03,,,,,1.33,1.06,0.80*07
$GPGSV,3,1,12,12,73,278,51,02,66,193,51,06,62,070,48,19,40,079,46*72
$GPGSV,3,2,12,25,32,307,42,48,28,206,47,24,22,224,41,17,22,083,44*74
$GPGSV,3,3,12,03,05,023,31,29,04,268,47,05,04,166,39,31,02,340,34*75
$GPRMC,232623.000,A,5056.9451,N,11134.7225,W,59.06,165.56,180518,,,D*48
$GFDTA,     6.9,97,3.0,9987,2018/05/18 17:14:33, CH4AB-1047,1*77
$GPGGA,232624.000,5056.9294,N,11134.7161,W,2,8,1.06,771.0,M,-18.1,M,0000,0000*62
$GPGSA,A,3,17,02,25,19,06,12,24,03,,,,,1.33,1.06,0.80*07
$GPGSV,3,1,12,12,73,278,51,02,66,193,51,06,62,070,48,19,40,079,46*72
$GPGSV,3,2,12,25,32,307,42,48,28,206,47,24,22,224,41,17,22,083,44*74
$GPGSV,3,3,12,03,05,023,33,29,04,268,46,05,04,166,40,31,02,340,33*7F
$GPRMC,232624.000,A,5056.9294,N,11134.7161,W,58.88,165.84,180518,,,D*4B
$GPGGA,232625.000,5056.9136,N,11134.7095,W,2,8,1.06,770.1,M,-18.1,M,0000,0000*62
$GPGSA,A,3,17,02,25,19,06,12,24,03,,,,,1.33,1.06,0.80*07
$GPGSV,3,1,12,12,73,278,51,02,66,193,51,06,62,070,48,19,40,079,46*72
$GPGSV,3,2,12,25,32,307,42,48,28,206,47,24,22,224,41,17,22,083,45*75
$GPGSV,3,3,12,03,05,023,32,29,04,268,46,05,04,166,47,31,02,340,32*78
$GPRMC,232625.000,A,5056.9136,N,11134.7095,W,58.67,165.41,180518,,,D*43
$GFDTA,     6.8,97,3.0,9928,2018/05/18 17:14:34, CH4AB-1047,1*74
$GPGGA,232626.000,5056.8979,N,11134.7030,W,2,8,1.06,769.2,M,-18.1,M,0000,0000*67
$GPGSA,A,3,17,02,25,19,06,12,24,03,,,,,1.33,1.06,0.80*07
$GPGSV,3,1,12,12,73,278,51,02,66,193,51,06,62,070,48,19,40,079,46*72
$GPGSV,3,2,12,25,32,307,42,48,28,206,47,24,22,224,41,17,22,083,45*75
$GPGSV,3,3,12,03,05,023,32,29,04,268,45,05,04,166,46,31,02,340,30*78
$GPRMC,232626.000,A,5056.8979,N,11134.7030,W,58.85,165.05,180518,,,D*41
$GFDTA,     6.9,97,3.0,9874,2018/05/18 17:14:36, CH4AB-1047,1*7F
$GPGGA,232627.000,5056.8820,N,11134.6962,W,2,8,1.10,768.5,M,-18.1,M,0000,0000*65
$GPGSA,A,3,17,02,25,19,06,12,24,03,,,,,1.72,1.10,1.33*0C
$GPGSV,3,1,12,12,73,278,51,02,66,193,51,06,62,070,48,19,40,079,46*72
$GPGSV,3,2,12,25,32,307,42,48,28,206,47,24,22,224,40,17,22,083,45*74
$GPGSV,3,3,12,03,05,023,31,29,04,268,44,05,04,166,46,31,02,340,*79
$GPRMC,232627.000,A,5056.8820,N,11134.6962,W,59.27,164.84,180518,,,D*43
$GPGGA,232628.000,5056.8661,N,11134.6894,W,2,8,1.10,767.6,M,-18.1,M,0000,0000*65
$GPGSA,A,3,17,02,25,19,06,12,24,03,,,,,1.72,1.10,1.33*0C
$GPGSV,3,1,12,12,73,278,51,02,66,193,51,06,62,070,48,19,40,079,46*72
$GPGSV,3,2,12,25,32,307,42,48,28,206,47,24,22,224,39,17,22,083,46*79
$GPGSV,3,3,12,03,05,023,39,29,04,268,43,05,04,166,37,31,02,340,*70
$GPRMC,232628.000,A,5056.8661,N,11134.6894,W,59.56,164.69,180518,,,D*4A
$GFDTA,     6.8,97,3.0,9956,2018/05/18 17:14:37, CH4AB-1047,1*7E
$GPGGA,232629.000,5056.8501,N,11134.6824,W,2,8,1.10,767.3,M,-18.1,M,0000,0000*6F
$GPGSA,A,3,17,02,25,19,06,12,24,03,,,,,1.72,1.10,1.33*0C
$GPGSV,3,1,12,12,73,278,51,02,66,193,51,06,62,070,48,19,40,079,46*72
$GPGSV,3,2,12,25,32,307,42,48,28,206,47,24,22,224,40,17,22,083,46*77
$GPGSV,3,3,12,03,05,023,30,29,04,268,45,05,04,166,46,31,02,340,27*7C
$GPRMC,232629.000,A,5056.8501,N,11134.6824,W,59.96,164.34,180518,,,D*41
$GFDTA,     6.8,97,3.0,9880,2018/05/18 17:14:39, CH4AB-1047,1*7A
$GPGGA,232630.000,5056.8340,N,11134.6752,W,2,8,1.10,767.2,M,-18.1,M,0000,0000*6B
$GPGSA,A,3,17,02,25,19,06,12,24,03,,,,,1.72,1.10,1.33*0C
$GPGSV,3,1,12,12,73,278,51,02,67,193,51,06,62,070,48,19,40,079,46*73
$GPGSV,3,2,12,25,32,307,42,48,28,206,47,24,22,224,41,17,22,083,46*76
$GPGSV,3,3,12,03,05,023,31,29,04,268,45,05,04,166,45,31,02,340,30*78
$GPRMC,232630.000,A,5056.8340,N,11134.6752,W,60.18,163.97,180518,,,D*46
$GPGGA,232631.000,5056.8180,N,11134.6680,W,2,8,1.10,766.4,M,-18.1,M,0000,0000*6D
$GPGSA,A,3,17,02,25,19,06,12,24,03,,,,,1.72,1.10,1.33*0C
$GPGSV,3,1,12,12,73,278,51,02,67,193,51,06,62,070,48,19,40,079,46*73
$GPGSV,3,2,12,25,32,307,42,48,28,206,47,24,22,224,40,17,22,083,46*77
$GPGSV,3,3,12,03,05,023,32,29,04,268,45,05,04,166,38,31,02,340,24*74
$GPRMC,232631.000,A,5056.8180,N,11134.6680,W,60.22,164.29,180518,,,D*4C
$GFDTA,     6.8,97,3.0,9859,2018/05/18 17:14:41, CH4AB-1047,1*71
$GPGGA,232632.000,5056.8019,N,11134.6607,W,2,8,1.06,765.7,M,-18.1,M,0000,0000*67
$GPGSA,A,3,17,02,25,19,06,12,24,03,,,,,1.33,1.06,0.80*07
$GPGSV,3,1,12,12,73,278,51,02,67,193,51,06,62,070,48,19,40,079,46*73
$GPGSV,3,2,12,25,32,307,42,48,28,206,47,24,22,224,38,17,22,083,45*7B
$GPGSV,3,3,12,03,05,023,33,29,04,268,44,05,04,166,46,31,02,340,24*7D
$GPRMC,232632.000,A,5056.8019,N,11134.6607,W,59.83,164.77,180518,,,D*4B
$GPGGA,232633.000,5056.7857,N,11134.6538,W,2,7,1.26,765.7,M,-18.1,M,0000,0000*69
$GPGSA,A,3,17,02,25,19,06,12,24,,,,,,1.52,1.26,0.85*04
$GPGSV,3,1,12,12,73,278,51,02,67,193,51,06,62,070,48,19,40,079,46*73
$GPGSV,3,2,12,25,32,307,42,48,28,206,47,24,22,224,38,17,22,083,46*78
$GPGSV,3,3,12,03,05,023,26,29,04,268,44,05,04,166,37,31,02,340,24*7F
$GPRMC,232633.000,A,5056.7857,N,11134.6538,W,59.43,164.80,180518,,,D*4C
$GFDTA,     6.8,97,3.0,9917,2018/05/18 17:14:42, CH4AB-1047,1*79
$GPGGA,232634.000,5056.7699,N,11134.6472,W,2,8,1.06,766.0,M,-18.1,M,0000,0000*64
$GPGSA,A,3,17,02,25,19,06,12,24,03,,,,,1.33,1.06,0.80*07
$GPGSV,3,1,12,12,73,278,51,02,67,193,51,06,61,070,48,19,40,079,45*73
$GPGSV,3,2,12,25,32,307,42,48,28,206,47,24,22,224,37,17,22,083,47*76
$GPGSV,3,3,12,03,05,023,35,29,04,268,43,05,04,166,47,31,02,340,28*71
$GPRMC,232634.000,A,5056.7699,N,11134.6472,W,59.40,164.95,180518,,,D*4F
$GFDTA,     6.9,97,3.0,9916,2018/05/18 17:14:44, CH4AB-1047,1*7F
$GPGGA,232635.000,5056.7538,N,11134.6405,W,2,8,1.06,766.3,M,-18.1,M,0000,0000*6E
$GPGSA,A,3,17,02,25,19,06,12,24,03,,,,,1.33,1.06,0.80*07
$GPGSV,3,1,12,12,73,278,51,02,67,193,51,06,61,070,48,19,40,079,45*73
$GPGSV,3,2,12,25,32,307,42,48,28,206,47,24,22,224,37,17,22,083,47*76
$GPGSV,3,3,12,03,05,023,34,29,04,268,43,05,04,166,45,31,02,340,*78
$GPRMC,232635.000,A,5056.7538,N,11134.6405,W,60.16,164.42,180518,,,D*45
$GPGGA,232636.000,5056.7378,N,11134.6336,W,2,8,1.06,765.9,M,-18.1,M,0000,0000*61
$GPGSA,A,3,17,02,25,19,06,12,24,03,,,,,1.33,1.06,0.80*07
$GPGSV,3,1,12,12,73,278,51,02,67,193,51,06,61,070,48,19,40,079,46*70
$GPGSV,3,2,12,25,32,307,42,48,28,206,47,24,22,224,37,17,22,083,47*76
$GPGSV,3,3,12,03,05,023,33,29,04,268,42,05,04,166,36,31,02,340,27*7F
$GPRMC,232636.000,A,5056.7378,N,11134.6336,W,60.67,164.59,180518,,,D*4F
$GFDTA,     6.8,97,3.0,9960,2018/05/18 17:14:45, CH4AB-1047,1*7E
$GPGGA,232637.000,5056.7217,N,11134.6268,W,2,8,1.06,765.3,M,-18.1,M,0000,0000*68
$GPGSA,A,3,17,02,25,19,06,12,24,03,,,,,1.33,1.06,0.80*07
$GPGSV,3,1,12,12,73,278,51,02,67,193,51,06,61,070,48,19,40,079,46*70
$GPGSV,3,2,12,25,32,307,42,48,28,206,47,24,22,224,37,17,22,083,48*79
$GPGSV,3,3,12,03,05,023,34,29,04,268,43,05,04,166,49,31,02,340,31*76
$GPRMC,232637.000,A,5056.7217,N,11134.6268,W,61.03,165.25,180518,,,D*45
$GFDTA,     6.8,97,3.0,9911,2018/05/18 17:14:47, CH4AB-1047,1*7A
$GPGGA,232638.000,5056.7054,N,11134.6202,W,2,8,1.10,765.3,M,-18.1,M,0000,0000*69
$GPGSA,A,3,17,02,25,19,06,12,24,03,,,,,1.72,1.10,1.33*0C
$GPGSV,3,1,12,12,73,278,51,02,67,193,51,06,61,070,48,19,40,079,45*73
$GPGSV,3,2,12,25,32,307,42,48,28,206,47,24,22,224,37,17,22,083,48*79
$GPGSV,3,3,12,03,05,023,34,29,04,268,43,05,04,166,42,31,02,340,26*7B
$GPRMC,232638.000,A,5056.7054,N,11134.6202,W,60.31,164.89,180518,,,D*44
$GPGGA,232639.000,5056.6892,N,11134.6129,W,2,8,1.10,765.9,M,-18.1,M,0000,0000*6B
$GPGSA,A,3,17,02,25,19,06,12,24,03,,,,,1.72,1.10,1.33*0C
$GPGSV,3,1,12,12,73,278,51,02,67,193,51,06,61,070,48,19,40,079,45*73
$GPGSV,3,2,12,25,32,307,42,48,28,206,47,24,22,224,37,17,22,083,48*79
$GPGSV,3,3,12,03,05,023,33,29,04,268,43,05,04,166,43,31,02,340,23*78
$GPRMC,232639.000,A,5056.6892,N,11134.6129,W,59.50,163.95,180518,,,D*4B
$GFDTA,     6.8,97,3.0,9943,2018/05/18 17:14:48, CH4AB-1047,1*72
$GPGGA,232640.000,5056.6733,N,11134.6055,W,2,8,1.10,766.5,M,-18.1,M,0000,0000*64
$GPGSA,A,3,17,02,25,19,06,12,24,03,,,,,1.72,1.10,1.33*0C
$GPGSV,3,1,12,12,73,277,51,02,67,193,51,06,61,070,48,19,40,079,45*7C
$GPGSV,3,2,12,25,32,307,42,48,28,206,47,24,22,224,37,17,22,083,48*79
$GPGSV,3,3,12,03,05,023,34,29,04,268,41,05,04,166,42,31,02,340,27*78
$GPRMC,232640.000,A,5056.6733,N,11134.6055,W,59.58,163.73,180518,,,D*4B
$GFDTA,     6.8,97,3.0,9894,2018/05/18 17:14:50, CH4AB-1047,1*70
$GPGGA,232641.000,5056.6575,N,11134.5984,W,2,8,1.06,767.2,M,-18.1,M,0000,0000*62
$GPGSA,A,3,17,02,25,19,06,12,24,03,,,,,1.33,1.06,0.80*07
$GPGSV,3,1,12,12,73,277,51,02,67,193,51,06,61,070,48,19,40,079,45*7C
$GPGSV,3,2,12,25,32,307,42,48,28,206,47,24,22,224,38,17,22,083,47*79
$GPGSV,3,3,12,03,05,023,35,29,04,268,43,05,04,166,44,31,02,340,25*7F
$GPRMC,232641.000,A,5056.6575,N,11134.5984,W,59.83,164.38,180518,,,D*42
$GPGGA,232642.000,5056.6417,N,11134.5915,W,2,8,1.06,767.6,M,-18.1,M,0000,0000*68
$GPGSA,A,3,17,02,25,19,06,12,24,03,,,,,1.33,1.06,0.80*07
$GPGSV,3,1,12,12,73,277,51,02,67,193,51,06,61,070,48,19,40,079,45*7C
$GPGSV,3,2,12,25,32,307,42,48,28,206,47,24,22,224,38,17,22,083,47*79
$GPGSV,3,3,12,03,05,023,34,29,04,268,42,05,04,166,44,31,02,340,24*7E
$GPRMC,232642.000,A,5056.6417,N,11134.5915,W,59.22,164.93,180518,,,D*46
$GFDTA,     6.8,97,3.0,9921,2018/05/18 17:14:52, CH4AB-1047,1*7D
$GPGGA,232643.000,5056.6261,N,11134.5849,W,2,8,1.06,768.0,M,-18.1,M,0000,0000*6F
$GPGSA,A,3,17,02,25,19,06,12,24,03,,,,,1.33,1.06,0.80*07
$GPGSV,4,1,13,12,73,277,51,02,67,193,51,06,61,070,48,19,40,079,45*7A
$GPGSV,4,2,13,25,32,307,42,48,28,206,47,24,22,224,38,17,22,083,47*7F
$GPGSV,4,3,13,03,05,023,35,29,04,268,42,05,04,166,42,14,02,327,*7F
$GPGSV,4,4,13,31,02,340,24*4A
$GPRMC,232643.000,A,5056.6261,N,11134.5849,W,58.49,164.92,180518,,,D*45
$GPGGA,232644.000,5056.6103,N,11134.5782,W,2,8,1.06,768.4,M,-18.1,M,0000,0000*63
$GPGSA,A,3,17,02,25,19,06,12,24,03,,,,,1.33,1.06,0.80*07
$GPGSV,4,1,13,12,73,277,51,02,67,193,51,06,61,070,48,19,40,079,45*7A
$GPGSV,4,2,13,25,32,307,42,48,28,206,47,24,22,224,37,17,22,083,47*70
$GPGSV,4,3,13,03,05,023,36,29,04,268,43,05,04,166,42,14,02,327,26*79
$GPGSV,4,4,13,31,02,340,33*4C
$GPRMC,232644.000,A,5056.6103,N,11134.5782,W,58.42,165.26,180518,,,D*48
$GFDTA,     6.8,97,3.0,9988,2018/05/18 17:14:53, CH4AB-1047,1*7F
$GPGGA,232645.000,5056.5945,N,11134.5716,W,2,8,1.06,769.1,M,-18.1,M,0000,0000*62
$GPGSA,A,3,17,02,25,19,06,12,24,03,,,,,1.33,1.06,0.80*07
$GPGSV,4,1,13,12,73,277,51,02,67,193,51,06,61,070,48,19,40,079,45*7A
$GPGSV,4,2,13,25,32,307,42,48,28,206,47,24,22,224,37,17,22,083,47*70
$GPGSV,4,3,13,03,05,023,36,29,04,268,43,05,04,166,44,14,02,327,23*7A
$GPGSV,4,4,13,31,02,340,23*4D
$GPRMC,232645.000,A,5056.5945,N,11134.5716,W,58.37,165.48,180518,,,D*47
$GFDTA,     6.8,97,3.0,9959,2018/05/18 17:14:55, CH4AB-1047,1*75
$GPGGA,232646.000,5056.5786,N,11134.5652,W,2,8,1.06,769.5,M,-18.1,M,0000,0000*65
$GPGSA,A,3,17,02,25,19,06,12,24,03,,,,,1.33,1.06,0.80*07
$GPGSV,4,1,13,12,73,277,51,02,67,193,51,06,61,070,48,19,40,079,45*7A
$GPGSV,4,2,13,25,32,307,42,48,28,206,47,24,22,224,37,17,22,084,47*77
$GPGSV,4,3,13,03,05,023,36,29,04,268,45,05,04,166,44,14,02,327,17*7B
$GPGSV,4,4,13,31,02,340,24*4A
$GPRMC,232646.000,A,5056.5786,N,11134.5652,W,58.53,165.66,180518,,,D*4A
$GPGGA,232647.000,5056.5631,N,11134.5586,W,2,8,1.06,769.7,M,-18.1,M,0000,0000*61
$GPGSA,A,3,17,02,25,19,06,12,24,03,,,,,1.33,1.06,0.80*07
$GPGSV,4,1,13,12,73,277,51,02,67,193,51,06,61,070,48,19,40,079,44*7B
$GPGSV,4,2,13,25,32,307,43,48,28,206,47,24,22,224,38,17,22,084,47*79
$GPGSV,4,3,13,03,05,023,35,29,04,268,45,05,04,166,44,14,02,327,17*78
$GPGSV,4,4,13,31,02,340,25*4B
$GPRMC,232647.000,A,5056.5631,N,11134.5586,W,58.37,165.31,180518,,,D*4C
$GFDTA,     6.8,97,3.0,9999,2018/05/18 17:14:56, CH4AB-1047,1*7A
$GPGGA,232648.000,5056.5475,N,11134.5519,W,2,8,1.06,769.8,M,-18.1,M,0000,0000*65
$GPGSA,A,3,17,02,25,19,06,12,24,03,,,,,1.33,1.06,0.80*07
$GPGSV,4,1,13,12,73,277,51,02,67,193,51,06,61,070,48,19,40,079,45*7A
$GPGSV,4,2,13,25,32,307,43,48,28,206,47,24,22,224,38,17,22,084,46*78
$GPGSV,4,3,13,03,05,023,35,29,04,268,37,05,04,166,44,14,02,327,19*73
$GPGSV,4,4,13,31,02,340,23*4D
$GPRMC,232648.000,A,5056.5475,N,11134.5519,W,58.44,165.03,180518,,,D*42
$GFDTA,     6.8,97,3.0,10033,2018/05/18 17:14:58, CH4AB-1047,1*45
$GPGGA,232649.000,5056.5316,N,11134.5453,W,2,8,1.10,769.8,M,-18.1,M,0000,0000*6E
$GPGSA,A,3,17,02,25,19,06,12,24,03,,,,,1.72,1.10,1.32*0D
$GPGSV,4,1,13,12,73,277,51,02,67,193,51,06,61,070,48,19,40,079,45*7A
$GPGSV,4,2,13,25,32,307,43,48,28,206,47,24,22,224,38,17,22,084,45*7B
$GPGSV,4,3,13,03,05,023,35,29,04,268,50,05,04,166,44,14,02,327,18*73
$GPGSV,4,4,13,31,02,340,23*4D
$GPRMC,232649.000,A,5056.5316,N,11134.5453,W,59.31,165.45,180518,,,D*4F
$GPGGA,232650.000,5056.5155,N,11134.5384,W,2,8,1.10,770.2,M,-18.1,M,0000,0000*6C
$GPGSA,A,3,17,02,25,19,06,12,24,03,,,,,1.72,1.10,1.32*0D
$GPGSV,4,1,13,12,73,277,51,02,67,193,51,06,61,070,47,19,40,079,45*75
$GPGSV,4,2,13,25,32,307,43,48,28,206,47,24,22,224,39,17,22,084,46*79
$GPGSV,4,3,13,03,05,023,34,29,04,268,49,05,04,166,43,14,02,327,18*7D
$GPGSV,4,4,13,31,02,340,30*4F
$GPRMC,232650.000,A,5056.5155,N,11134.5384,W,60.01,165.77,180518,,,D*47
$GFDTA,     6.8,97,3.0,10019,2018/05/18 17:15:00, CH4AB-1047,1*41
$GPGGA,232651.000,5056.4996,N,11134.5318,W,2,8,1.10,770.3,M,-18.1,M,0000,0000*6F
$GPGSA,A,3,17,02,25,19,06,12,24,03,,,,,1.72,1.10,1.32*0D
$GPGSV,4,1,13,12,73,277,51,02,67,193,51,06,61,070,47,19,40,079,44*74
$GPGSV,4,2,13,25,32,307,44,48,28,206,47,24,22,224,39,17,22,084,48*70
$GPGSV,4,3,13,03,05,023,35,29,04,268,41,05,04,166,43,14,02,327,18*74
$GPGSV,4,4,13,31,02,340,29*47
$GPRMC,232651.000,A,5056.4996,N,11134.5318,W,60.32,164.90,180518,,,D*4D
$GPGGA,232652.000,5056.4834,N,11134.5244,W,2,8,1.10,770.1,M,-18.1,M,0000,0000*6F
$GPGSA,A,3,17,02,25,19,06,12,24,03,,,,,1.72,1.10,1.32*0D
$GPGSV,4,1,13,12,73,277,51,02,67,193,51,06,61,070,47,19,40,079,43*73
$GPGSV,4,2,13,25,32,307,44,48,28,206,47,24,22,224,39,17,22,084,47*7F
$GPGSV,4,3,13,03,05,023,33,29,04,268,42,05,04,166,44,14,02,327,28*75
$GPGSV,4,4,13,31,02,340,22*4C
$GPRMC,232652.000,A,5056.4834,N,11134.5244,W,60.74,163.63,180518,,,D*46
$GFDTA,     6.8,97,3.0,9968,2018/05/18 17:15:01, CH4AB-1047,1*77
$GPGGA,232653.000,5056.4669,N,11134.5163,W,2,8,1.10,769.8,M,-18.1,M,0000,0000*6F
$GPGSA,A,3,17,02,25,19,06,12,24,03,,,,,1.72,1.10,1.32*0D
$GPGSV,4,1,13,12,73,277,51,02,67,193,51,06,61,070,47,19,40,079,43*73
$GPGSV,4,2,13,25,32,307,44,48,28,206,47,24,22,224,39,17,22,084,47*7F
$GPGSV,4,3,13,03,05,023,35,29,04,268,35,05,04,166,45,14,02,327,28*72
$GPGSV,4,4,13,31,02,340,33*4C
$GPRMC,232653.000,A,5056.4669,N,11134.5163,W,61.28,162.89,180518,,,D*4A
$GFDTA,     6.8,97,3.0,9986,2018/05/18 17:15:03, CH4AB-1047,1*75
$GPGGA,232654.000,5056.4505,N,11134.5083,W,2,8,1.10,770.0,M,-18.1,M,0000,0000*6E
$GPGSA,A,3,17,02,25,19,06,12,24,03,,,,,1.72,1.10,1.32*0D
$GPGSV,4,1,13,12,73,277,51,02,67,193,51,06,61,070,48,19,40,079,44*7B
$GPGSV,4,2,13,25,32,307,43,48,28,206,47,24,22,224,40,17,22,084,48*79
$GPGSV,4,3,13,03,05,023,37,29,04,268,44,05,04,166,46,14,02,327,26*7B
$GPGSV,4,4,13,31,02,340,34*4B
$GPRMC,232654.000,A,5056.4505,N,11134.5083,W,61.56,163.05,180518,,,D*47
$GPGGA,232655.000,5056.4340,N,11134.5008,W,2,8,1.06,770.6,M,-18.1,M,0000,0000*6A
$GPGSA,A,3,17,02,25,19,06,12,24,03,,,,,1.33,1.06,0.80*07
$GPGSV,4,1,13,12,73,277,51,02,67,193,51,06,61,070,48,19,40,079,45*7A
$GPGSV,4,2,13,25,32,307,43,48,28,206,47,24,22,224,38,17,22,084,48*76
$GPGSV,4,3,13,03,05,023,38,29,04,268,42,05,04,166,46,14,02,327,25*71
$GPGSV,4,4,13,31,02,340,34*4B
$GPRMC,232655.000,A,5056.4340,N,11134.5008,W,61.84,163.76,180518,,,D*49
$GFDTA,     6.8,97,3.0,10001,2018/05/18 17:15:04, CH4AB-1047,1*4C
$GPGGA,232656.000,5056.4172,N,11134.4933,W,2,8,1.06,771.7,M,-18.1,M,0000,0000*6A
$GPGSA,A,3,17,02,25,19,06,12,24,03,,,,,1.33,1.06,0.80*07
$GPGSV,4,1,13,12,73,277,51,02,67,193,51,06,61,070,48,19,40,079,45*7A
$GPGSV,4,2,13,25,32,307,43,48,28,206,47,24,22,224,37,17,22,084,47*76
$GPGSV,4,3,13,03,05,023,36,29,04,268,42,05,04,166,47,14,02,327,24*7F
$GPGSV,4,4,13,31,02,340,*4C
$GPRMC,232656.000,A,5056.4172,N,11134.4933,W,62.04,164.49,180518,,,D*49
$GFDTA,     6.8,97,3.0,10041,2018/05/18 17:15:06, CH4AB-1047,1*4A
$GPGGA,232657.000,5056.4004,N,11134.4861,W,2,8,1.06,773.1,M,-18.1,M,0000,0000*69
$GPGSA,A,3,17,02,25,19,06,12,24,03,,,,,1.33,1.06,0.80*07
$GPGSV,4,1,13,12,73,277,51,02,67,193,51,06,61,070,47,19,40,079,45*75
$GPGSV,4,2,13,25,32,307,43,48,28,206,47,24,22,224,38,17,22,084,47*79
$GPGSV,4,3,13,03,05,023,35,29,04,268,42,05,04,166,40,14,02,327,23*7C
$GPGSV,4,4,13,31,02,340,*4C
$GPRMC,232657.000,A,5056.4004,N,11134.4861,W,62.43,164.82,180518,,,D*4A
$GPGGA,232658.000,5056.3835,N,11134.4787,W,2,8,1.06,774.4,M,-18.1,M,0000,0000*6E
$GPGSA,A,3,17,02,25,19,06,12,24,03,,,,,1.33,1.06,0.80*07
$GPGSV,4,1,13,12,73,277,51,02,67,193,51,06,61,070,47,19,40,079,45*75
$GPGSV,4,2,13,25,32,307,43,48,28,206,47,24,22,224,38,17,22,084,47*79
$GPGSV,4,3,13,03,05,023,33,29,04,269,44,05,04,166,47,14,02,327,23*7A
$GPGSV,4,4,13,31,02,340,30*4F
$GPRMC,232658.000,A,5056.3835,N,11134.4787,W,62.75,164.27,180518,,,D*45
$GFDTA,     6.8,97,3.0,10045,2018/05/18 17:15:08, CH4AB-1047,1*40
$GPGGA,232659.000,5056.3665,N,11134.4711,W,2,7,1.26,775.4,M,-18.1,M,0000,0000*67
$GPGSA,A,3,17,02,25,19,06,12,24,,,,,,1.52,1.26,0.85*04
$GPGSV,4,1,13,12,73,277,51,02,67,193,51,06,61,070,47,19,40,079,45*75
$GPGSV,4,2,13,25,32,307,43,48,28,206,47,24,22,224,39,17,22,084,46*79
$GPGSV,4,3,13,03,05,023,26,29,04,269,45,05,04,166,46,14,02,327,23*7E
$GPGSV,4,4,13,31,02,340,32*4D
$GPRMC,232659.000,A,5056.3665,N,11134.4711,W,63.33,163.81,180518,,,D*48
$GPGGA,232700.000,5056.3496,N,11134.4633,W,2,7,1.27,776.4,M,-18.1,M,0000,0000*67
$GPGSA,A,3,17,02,25,19,06,12,24,,,,,,1.52,1.27,0.85*05
$GPGSV,4,1,13,12,73,277,51,02,67,193,51,06,61,070,47,19,40,079,45*75
$GPGSV,4,2,13,25,32,307,43,48,28,206,47,24,22,224,40,17,22,084,45*74
$GPGSV,4,3,13,03,05,023,26,29,04,269,45,05,04,166,45,14,02,327,22*7C
$GPGSV,4,4,13,31,02,340,37*48
$GPRMC,232700.000,A,5056.3496,N,11134.4633,W,63.80,163.55,180518,,,D*4B
$GFDTA,     6.7,97,3.0,10035,2018/05/18 17:15:09, CH4AB-1047,1*49
$GPGGA,232701.000,5056.3325,N,11134.4551,W,2,7,1.27,777.4,M,-18.1,M,0000,0000*6F
$GPGSA,A,3,17,02,25,19,06,12,24,,,,,,2.05,1.27,1.61*0F
$GPGSV,4,1,13,12,73,277,51,02,67,193,51,06,61,070,47,19,40,079,45*75
$GPGSV,4,2,13,25,32,307,43,48,28,206,47,24,22,224,40,17,22,084,46*77
$GPGSV,4,3,13,03,05,023,26,29,04,269,47,05,04,166,45,14,02,327,20*7C
$GPGSV,4,4,13,31,02,340,32*4D
$GPRMC,232701.000,A,5056.3325,N,11134.4551,W,64.09,163.22,180518,,,D*44
$GFDTA,     6.8,97,3.0,10018,2018/05/18 17:15:11, CH4AB-1047,1*40
$GPGGA,232702.000,5056.3155,N,11134.4470,W,2,8,1.10,777.6,M,-18.1,M,0000,0000*62
$GPGSA,A,3,17,02,25,19,06,12,24,03,,,,,1.72,1.10,1.32*0D
$GPGSV,4,1,13,12,73,277,51,02,67,193,51,06,61,070,47,19,40,079,45*75
$GPGSV,4,2,13,25,32,307,43,48,28,206,47,24,22,224,38,17,22,084,46*78
$GPGSV,4,3,13,03,05,023,28,29,04,269,46,05,04,166,45,14,02,327,21*72
$GPGSV,4,4,13,31,02,340,*4C
$GPRMC,232702.000,A,5056.3155,N,11134.4470,W,64.33,163.28,180518,,,D*43
$GPGGA,232703.000,5056.2983,N,11134.4392,W,2,7,1.27,777.8,M,-18.1,M,0000,0000*6F
$GPGSA,A,3,17,02,25,19,06,12,24,,,,,,2.05,1.27,1.61*0F
$GPGSV,4,1,13,12,73,277,51,02,67,193,51,06,61,070,47,19,40,079,45*75
$GPGSV,4,2,13,25,32,307,43,48,28,206,47,24,22,224,38,17,22,084,46*78
$GPGSV,4,3,13,03,05,023,28,29,04,269,45,05,04,166,46,14,02,327,22*71
$GPGSV,4,4,13,31,02,340,24*4A
$GPRMC,232703.000,A,5056.2983,N,11134.4392,W,64.33,163.83,180518,,,D*4A
$GFDTA,     6.8,97,3.0,10003,2018/05/18 17:15:12, CH4AB-1047,1*49
$GPGGA,232704.000,5056.2809,N,11134.4315,W,2,7,1.27,778.3,M,-18.1,M,0000,0000*60
$GPGSA,A,3,17,02,25,19,06,12,24,,,,,,2.05,1.27,1.61*0F
$GPGSV,4,1,13,12,73,277,51,02,67,193,51,06,61,070,47,19,40,079,45*75
$GPGSV,4,2,13,25,32,307,43,48,28,206,47,24,22,224,40,17,22,084,46*77
$GPGSV,4,3,13,29,04,269,43,05,04,166,47,03,04,022,27,14,02,327,23*78
$GPGSV,4,4,13,31,02,340,35*4A
$GPRMC,232704.000,A,5056.2809,N,11134.4315,W,64.16,164.37,180518,,,D*4E
$GFDTA,     6.8,97,3.0,10017,2018/05/18 17:15:14, CH4AB-1047,1*4A
$GPGGA,232705.000,5056.2638,N,11134.4237,W,2,7,1.27,778.9,M,-18.1,M,0000,0000*66
$GPGSA,A,3,17,02,25,19,06,12,24,,,,,,2.05,1.27,1.61*0F
$GPGSV,4,1,13,12,73,277,51,02,67,193,51,06,61,070,46,19,40,079,45*74
$GPGSV,4,2,13,25,32,307,43,48,28,206,47,24,22,224,40,17,22,084,46*77
$GPGSV,4,3,13,29,04,269,50,05,04,166,38,03,04,022,28,14,02,327,24*7A
$GPGSV,4,4,13,31,02,340,35*4A
$GPRMC,232705.000,A,5056.2638,N,11134.4237,W,63.82,164.18,180518,,,D*45
$GPGGA,232706.000,5056.2468,N,11134.4164,W,2,7,1.27,778.9,M,-18.1,M,0000,0000*67
$GPGSA,A,3,17,02,25,19,06,12,24,,,,,,2.05,1.27,1.61*0F
$GPGSV,4,1,13,12,73,277,51,02,67,193,51,06,61,070,46,19,40,079,45*74
$GPGSV,4,2,13,25,32,307,43,48,28,206,47,24,22,224,40,17,22,084,45*74
$GPGSV,4,3,13,29,04,269,49,05,04,166,48,03,04,022,27,14,02,327,25*7B
$GPGSV,4,4,13,31,02,340,31*4E
$GPRMC,232706.000,A,5056.2468,N,11134.4164,W,63.83,164.36,180518,,,D*49
$GFDTA,     6.7,97,3.0,10021,2018/05/18 17:15:15, CH4AB-1047,1*41
$GPGGA,232707.000,5056.2297,N,11134.4088,W,2,7,1.27,779.5,M,-18.1,M,0000,0000*6E
$GPGSA,A,3,17,02,25,19,06,12,24,,,,,,2.05,1.27,1.61*0F
$GPGSV,4,1,13,12,73,277,51,02,67,193,51,06,61,070,46,19,40,079,45*74
$GPGSV,4,2,13,25,32,307,43,48,28,206,47,24,22,224,40,17,22,084,45*74
$GPGSV,4,3,13,29,04,269,48,05,04,166,47,03,04,022,27,14,02,327,25*75
$GPGSV,4,4,13,31,02,340,26*48
$GPRMC,232707.000,A,5056.2297,N,11134.4088,W,63.47,164.48,180518,,,D*4C
$GFDTA,     6.8,97,3.0,10016,2018/05/18 17:15:17, CH4AB-1047,1*48
$GPGGA,232708.000,5056.2126,N,11134.4015,W,2,7,1.27,780.3,M,-18.1,M,0000,0000*6C
$GPGSA,A,3,17,02,25,19,06,12,24,,,,,,2.05,1.27,1.61*0F
$GPGSV,4,1,13,12,73,277,51,02,67,193,51,06,61,070,46,19,40,079,45*74
$GPGSV,4,2,13,25,32,307,43,48,28,206,47,24,22,224,39,17,22,084,45*7A
$GPGSV,4,3,13,29,04,269,48,05,04,166,40,03,04,022,29,14,02,327,25*7C
$GPGSV,4,4,13,31,02,340,25*4B
$GPRMC,232708.000,A,5056.2126,N,11134.4015,W,63.83,165.08,180518,,,D*43
$GPGGA,232709.000,5056.1954,N,11134.3942,W,2,7,1.27,781.3,M,-18.1,M,0000,0000*6E
$GPGSA,A,3,17,02,25,19,06,12,24,,,,,,2.05,1.27,1.61*0F
$GPGSV,4,1,13,12,73,277,51,02,67,193,51,06,61,070,46,19,40,079,45*74
$GPGSV,4,2,13,25,32,307,43,48,28,206,47,24,22,224,40,17,22,084,45*74
$GPGSV,4,3,13,29,04,269,48,05,04,166,42,03,04,022,30,14,02,327,18*78
$GPGSV,4,4,13,31,02,340,26*48
$GPRMC,232709.000,A,5056.1954,N,11134.3942,W,64.36,165.58,180518,,,D*4C
$GFDTA,     6.9,97,3.0,9963,2018/05/18 17:15:19, CH4AB-1047,1*74
$GPGGA,232710.000,5056.1780,N,11134.3870,W,2,7,1.26,782.1,M,-18.1,M,0000,0000*61
$GPGSA,A,3,17,02,25,19,06,12,24,,,,,,1.52,1.26,0.85*04
$GPGSV,4,1,13,12,73,277,51,02,67,193,51,06,61,070,46,19,40,079,45*74
$GPGSV,4,2,13,25,32,307,43,48,28,206,47,24,22,224,40,17,22,084,44*75
$GPGSV,4,3,13,29,04,269,47,05,04,166,42,03,04,022,32,14,02,327,19*74
$GPGSV,4,4,13,31,02,340,35*4A
$GPRMC,232710.000,A,5056.1780,N,11134.3870,W,64.79,165.74,180518,,,D*46
$GPGGA,232711.000,5056.1605,N,11134.3801,W,2,7,1.26,783.2,M,-18.1,M,0000,0000*68
$GPGSA,A,3,17,02,25,19,06,12,24,,,,,,1.52,1.26,0.85*04
$GPGSV,4,1,13,12,73,277,51,02,67,193,51,06,61,070,46,19,40,079,45*74
$GPGSV,4,2,13,25,32,307,43,48,28,206,47,24,22,224,40,17,22,084,44*75
$GPGSV,4,3,13,29,04,269,47,05,04,166,42,03,04,022,34,14,02,327,26*7E
$GPGSV,4,4,13,31,02,340,34*4B
$GPRMC,232711.000,A,5056.1605,N,11134.3801,W,65.02,165.89,180518,,,D*42
$GFDTA,     6.8,98,3.0,9951,2018/05/18 17:15:20, CH4AB-1047,1*71
$GPGGA,232712.000,5056.1430,N,11134.3735,W,2,7,1.26,784.5,M,-18.1,M,0000,0000*67
$GPGSA,A,3,17,02,25,19,06,12,24,,,,,,1.52,1.26,0.85*04
$GPGSV,4,1,13,12,73,277,51,02,67,193,51,06,61,070,46,19,40,079,45*74
$GPGSV,4,2,13,25,32,307,43,48,28,206,47,24,22,224,40,17,22,084,45*74
$GPGSV,4,3,13,29,04,269,48,05,04,166,41,03,04,022,35,14,02,327,27*72
$GPGSV,4,4,13,31,02,340,34*4B
$GPRMC,232712.000,A,5056.1430,N,11134.3735,W,65.04,165.98,180518,,,D*4B
$GFDTA,     6.9,97,3.0,9918,2018/05/18 17:15:22, CH4AB-1047,1*70
$GPGGA,232713.000,5056.1254,N,11134.3664,W,2,7,1.27,785.5,M,-18.1,M,0000,0000*67
$GPGSA,A,3,17,02,25,19,06,12,24,,,,,,1.52,1.27,0.85*05
$GPGSV,4,1,13,12,74,277,51,02,67,193,51,06,61,070,46,19,40,079,45*73
$GPGSV,4,2,13,25,32,307,43,48,28,206,47,24,22,224,40,17,22,084,44*75
$GPGSV,4,3,13,29,04,269,48,05,04,166,40,03,04,022,36,14,02,327,26*71
$GPGSV,4,4,13,31,02,340,26*48
$GPRMC,232713.000,A,5056.1254,N,11134.3664,W,65.42,166.08,180518,,,D*43
$GPGGA,232714.000,5056.1077,N,11134.3592,W,2,7,1.26,786.4,M,-18.1,M,0000,0000*6A
$GPGSA,A,3,17,02,25,19,06,12,24,,,,,,1.52,1.26,0.85*04
$GPGSV,4,1,13,12,74,277,51,02,67,193,51,06,61,070,46,19,40,079,44*72
$GPGSV,4,2,13,25,32,307,43,48,28,206,47,24,22,224,41,17,22,084,43*73
$GPGSV,4,3,13,29,04,269,46,05,04,166,41,03,04,022,37,14,02,327,18*72
$GPGSV,4,4,13,31,02,340,37*48
$GPRMC,232714.000,A,5056.1077,N,11134.3592,W,65.46,165.72,180518,,,D*47
$GFDTA,     6.8,97,3.0,9871,2018/05/18 17:15:23, CH4AB-1047,1*7E
$GPGGA,232715.000,5056.0900,N,11134.3518,W,2,7,1.26,787.4,M,-18.1,M,0000,0000*60
$GPGSA,A,3,17,02,25,19,06,12,24,,,,,,1.52,1.26,0.85*04
$GPGSV,4,1,13,12,74,277,51,02,67,193,51,06,61,070,46,19,40,079,44*72
$GPGSV,4,2,13,25,32,307,43,48,28,206,47,24,22,224,41,17,22,084,43*73
$GPGSV,4,3,13,29,04,269,46,05,04,166,42,03,04,022,37,14,02,327,25*7F
$GPGSV,4,4,13,31,02,340,27*49
$GPRMC,232715.000,A,5056.0900,N,11134.3518,W,65.89,165.12,180518,,,D*49
$GFDTA,     6.8,97,3.0,9831,2018/05/18 17:15:25, CH4AB-1047,1*7C
$GPGGA,232716.000,5056.0721,N,11134.3444,W,2,7,1.26,788.4,M,-18.1,M,0000,0000*69
$GPGSA,A,3,17,02,25,19,06,12,24,,,,,,1.52,1.26,0.85*04
$GPGSV,4,1,13,12,74,277,51,02,67,193,51,06,61,070,46,19,40,079,43*75
$GPGSV,4,2,13,25,32,307,43,48,28,206,47,24,22,224,41,17,22,084,43*73
$GPGSV,4,3,13,29,04,269,45,05,04,166,42,03,04,022,36,14,02,327,27*7F
$GPGSV,4,4,13,31,02,340,37*48
$GPRMC,232716.000,A,5056.0721,N,11134.3444,W,66.20,164.94,180518,,,D*40
$GPGGA,232717.000,5056.0542,N,11134.3369,W,2,7,1.27,789.2,M,-18.1,M,0000,0000*61
$GPGSA,A,3,17,02,25,19,06,12,24,,,,,,2.05,1.27,1.61*0F
$GPGSV,4,1,13,12,74,277,51,02,67,193,51,06,61,070,46,19,40,079,44*72
$GPGSV,4,2,13,25,32,307,43,48,28,206,47,24,22,224,40,17,22,084,44*75
$GPGSV,4,3,13,29,04,269,45,05,04,166,43,03,04,022,34,14,02,327,27*7C
$GPGSV,4,4,13,31,02,340,29*47
$GPRMC,232717.000,A,5056.0542,N,11134.3369,W,66.98,165.04,180518,,,D*45
$GFDTA,     6.8,97,3.0,9846,2018/05/18 17:15:27, CH4AB-1047,1*7E
$GPGGA,232718.000,5056.0362,N,11134.3293,W,2,7,1.27,789.6,M,-18.1,M,0000,0000*6A
$GPGSA,A,3,17,02,25,19,06,12,24,,,,,,2.05,1.27,1.61*0F
$GPGSV,4,1,13,12,74,277,51,02,67,193,51,06,61,070,46,19,40,079,44*72
$GPGSV,4,2,13,25,32,307,43,48,28,206,47,24,22,224,40,17,22,084,45*74
$GPGSV,4,3,13,29,04,269,44,05,04,166,43,03,04,022,33,14,02,327,26*7B
$GPGSV,4,4,13,31,02,340,30*4F
$GPRMC,232718.000,A,5056.0362,N,11134.3293,W,67.70,165.12,180518,,,D*4A
$GPGGA,232719.000,5056.0180,N,11134.3216,W,2,7,1.27,789.7,M,-18.1,M,0000,0000*69
$GPGSA,A,3,17,02,25,19,06,12,24,,,,,,2.05,1.27,1.61*0F
$GPGSV,4,1,13,12,74,277,51,02,67,193,51,06,61,070,46,19,40,079,44*72
$GPGSV,4,2,13,25,32,307,43,48,28,206,47,24,22,224,40,17,22,084,46*77
$GPGSV,4,3,13,29,04,269,45,05,04,166,44,03,04,022,32,14,02,327,25*7F
$GPGSV,4,4,13,31,02,340,32*4D
$GPRMC,232719.000,A,5056.0180,N,11134.3216,W,68.28,164.77,180518,,,D*48
$GFDTA,     6.9,97,3.0,9740,2018/05/18 17:15:28, CH4AB-1047,1*79
$GPGGA,232720.000,5055.9997,N,11134.3141,W,2,7,1.27,790.0,M,-18.1,M,0000,0000*69
$GPGSA,A,3,17,02,25,19,06,12,24,,,,,,1.52,1.27,0.85*05
$GPGSV,4,1,13,12,74,277,51,02,67,193,51,06,61,070,46,19,40,079,44*72
$GPGSV,4,2,13,25,32,307,43,48,28,206,47,24,22,224,40,17,22,084,47*76
$GPGSV,4,3,13,29,04,269,46,05,04,166,44,03,04,022,33,14,02,327,24*7C
$GPGSV,4,4,13,31,02,340,33*4C
$GPRMC,232720.000,A,5055.9997,N,11134.3141,W,67.85,164.33,180518,,,D*4F
$GFDTA,     6.8,98,3.0,9721,2018/05/18 17:15:30, CH4AB-1047,1*79
$GPGGA,232721.000,5055.9815,N,11134.3060,W,2,7,1.26,790.2,M,-18.1,M,0000,0000*62
$GPGSA,A,3,17,02,25,19,06,12,24,,,,,,1.52,1.26,0.85*04
$GPGSV,4,1,13,12,74,277,51,02,67,193,51,06,61,070,46,19,40,079,44*72
$GPGSV,4,2,13,25,32,307,43,48,28,206,47,24,22,224,40,17,22,084,48*79
$GPGSV,4,3,13,29,04,269,46,05,04,166,42,03,04,022,34,14,02,327,22*7B
$GPGSV,4,4,13,31,02,340,31*4E
$GPRMC,232721.000,A,5055.9815,N,11134.3060,W,67.01,164.14,180518,,,D*4E
$GPGGA,232722.000,5055.9635,N,11134.2979,W,2,7,1.26,790.9,M,-18.1,M,0000,0000*66
$GPGSA,A,3,17,02,25,19,06,12,24,,,,,,1.52,1.26,0.85*04
$GPGSV,4,1,13,12,74,277,51,02,67,193,51,06,61,070,46,19,40,079,44*72
$GPGSV,4,2,13,25,32,307,43,48,28,206,47,24,22,224,40,17,22,084,47*76
$GPGSV,4,3,13,29,04,269,44,05,04,166,44,03,04,022,33,14,02,327,15*7C
$GPGSV,4,4,13,31,02,340,31*4E
$GPRMC,232722.000,A,5055.9635,N,11134.2979,W,67.08,164.07,180518,,,D*4A
$GFDTA,     6.9,97,3.0,9663,2018/05/18 17:15:31, CH4AB-1047,1*71
$GPGGA,232723.000,5055.9457,N,11134.2896,W,2,7,1.26,791.0,M,-18.1,M,0000,0000*69
$GPGSA,A,3,17,02,25,19,06,12,24,,,,,,1.52,1.26,0.85*04
$GPGSV,4,1,13,12,74,277,51,02,67,193,51,06,61,070,46,19,40,079,44*72
$GPGSV,4,2,13,25,32,307,43,48,28,206,47,24,22,224,41,17,22,084,46*76
$GPGSV,4,3,13,29,04,269,45,05,04,166,46,03,04,022,33,14,02,327,16*7C
$GPGSV,4,4,13,31,02,340,32*4D
$GPRMC,232723.000,A,5055.9457,N,11134.2896,W,67.06,163.68,180518,,,D*4D
$GFDTA,     6.8,98,3.0,9698,2018/05/18 17:15:33, CH4AB-1047,1*79
$GPGGA,232724.000,5055.9279,N,11134.2813,W,2,7,1.27,790.6,M,-18.1,M,0000,0000*6F
$GPGSA,A,3,17,02,25,19,06,12,24,,,,,,2.05,1.27,1.61*0F
$GPGSV,4,1,13,12,74,277,51,02,67,193,51,06,61,070,46,19,40,079,44*72
$GPGSV,4,2,13,25,32,307,43,48,28,206,47,24,22,224,41,17,22,084,45*75
$GPGSV,4,3,13,29,04,269,47,05,04,166,47,03,04,022,32,14,02,327,18*70
$GPGSV,4,4,13,31,02,340,32*4D
$GPRMC,232724.000,A,5055.9279,N,11134.2813,W,66.57,163.62,180518,,,D*42
$GPGGA,232725.000,5055.9104,N,11134.2733,W,2,7,1.27,790.1,M,-18.1,M,0000,0000*6D
$GPGSA,A,3,17,02,25,19,06,12,24,,,,,,2.05,1.27,1.61*0F
$GPGSV,4,1,13,12,74,277,51,02,67,193,51,06,61,070,46,19,40,079,44*72
$GPGSV,4,2,13,25,32,307,43,48,28,206,47,24,22,224,41,17,22,084,44*74
$GPGSV,4,3,13,29,04,269,46,05,04,166,46,03,04,022,31,14,02,327,30*79
$GPGSV,4,4,13,31,02,340,33*4C
$GPRMC,232725.000,A,5055.9104,N,11134.2733,W,66.32,163.53,180518,,,D*46
$GFDTA,     6.9,98,3.0,9827,2018/05/18 17:15:35, CH4AB-1047,1*74
$GPGGA,232726.000,5055.8929,N,11134.2650,W,2,7,1.27,789.3,M,-18.1,M,0000,0000*66
$GPGSA,A,3,17,02,25,19,06,12,24,,,,,,2.05,1.27,1.61*0F
$GPGSV,4,1,13,12,74,277,51,02,67,193,51,06,61,070,46,19,40,079,44*72
$GPGSV,4,2,13,25,32,307,43,48,28,206,47,24,22,224,41,17,22,084,44*74
$GPGSV,4,3,13,29,04,269,46,05,04,166,38,03,04,022,23,14,02,327,17*76
$GPGSV,4,4,13,31,02,340,34*4B
$GPRMC,232726.000,A,5055.8929,N,11134.2650,W,65.93,163.65,180518,,,D*4A
$GPGGA,232727.000,5055.8752,N,11134.2568,W,2,7,1.27,788.6,M,-18.1,M,0000,0000*69
$GPGSA,A,3,17,02,25,19,06,12,24,,,,,,2.05,1.27,1.61*0F
$GPGSV,4,1,13,12,74,277,51,02,67,193,51,06,61,070,46,19,40,079,44*72
$GPGSV,4,2,13,25,32,307,43,48,28,206,47,24,22,224,41,17,22,084,44*74
$GPGSV,4,3,13,29,04,269,45,05,04,166,48,03,04,022,33,14,02,327,17*73
$GPGSV,4,4,13,31,02,340,34*4B
$GPRMC,232727.000,A,5055.8752,N,11134.2568,W,65.99,163.52,180518,,,D*4F
$GFDTA,     6.9,97,3.0,9852,2018/05/18 17:15:36, CH4AB-1047,1*7A
$GPGGA,232728.000,5055.8576,N,11134.2484,W,2,7,1.27,788.0,M,-18.1,M,0000,0000*67
$GPGSA,A,3,17,02,25,19,06,12,24,,,,,,2.05,1.27,1.61*0F
$GPGSV,4,1,13,12,74,277,51,02,67,193,51,06,61,070,46,19,40,079,44*72
$GPGSV,4,2,13,25,32,307,43,48,28,206,47,24,22,224,41,17,22,084,44*74
$GPGSV,4,3,13,29,04,269,45,05,04,166,39,03,04,022,33,14,02,327,29*78
$GPGSV,4,4,13,31,02,340,34*4B
$GPRMC,232728.000,A,5055.8576,N,11134.2484,W,66.57,163.38,180518,,,D*4A
$GFDTA,     6.8,97,3.0,9842,2018/05/18 17:15:38, CH4AB-1047,1*74
$GPGGA,232729.000,5055.8399,N,11134.2399,W,2,7,1.27,787.0,M,-18.1,M,0000,0000*65
$GPGSA,A,3,17,02,25,19,06,12,24,,,,,,2.05,1.27,1.61*0F
$GPGSV,4,1,13,12,74,277,51,02,67,193,51,06,61,070,46,19,40,079,44*72
$GPGSV,4,2,13,25,32,307,43,48,28,206,47,24,22,224,41,17,22,084,43*73
$GPGSV,4,3,13,29,04,269,43,05,04,166,46,03,04,022,32,14,02,327,29*77
$GPGSV,4,4,13,31,02,340,34*4B
$GPRMC,232729.000,A,5055.8399,N,11134.2399,W,66.57,163.35,180518,,,D*4A
$GPGGA,232730.000,5055.8224,N,11134.2315,W,2,7,1.27,785.5,M,-18.1,M,0000,0000*69
$GPGSA,A,3,17,02,25,19,06,12,24,,,,,,2.05,1.27,1.61*0F
$GPGSV,4,1,13,12,74,277,51,02,67,193,51,06,61,070,46,19,40,079,44*72
$GPGSV,4,2,13,25,32,307,43,48,28,206,47,24,22,224,41,17,22,084,44*74
$GPGSV,4,3,13,29,04,269,44,05,04,166,44,03,04,022,32,14,02,327,28*73
$GPGSV,4,4,13,31,02,340,34*4B
$GPRMC,232730.000,A,5055.8224,N,11134.2315,W,66.37,163.38,180518,,,D*4A
$GFDTA,     6.8,97,3.0,9878,2018/05/18 17:15:39, CH4AB-1047,1*7C
$GPGGA,232731.000,5055.8046,N,11134.2234,W,2,7,1.27,784.3,M,-18.1,M,0000,0000*6B
$GPGSA,A,3,17,02,25,19,06,12,24,,,,,,1.52,1.27,0.85*05
$GPGSV,4,1,13,12,74,277,51,02,67,193,51,06,61,070,46,19,40,079,44*72
$GPGSV,4,2,13,25,32,307,43,48,28,206,47,24,22,224,40,17,22,084,45*74
$GPGSV,4,3,13,29,04,269,43,05,04,166,51,03,04,022,32,14,02,327,27*7F
$GPGSV,4,4,13,31,02,340,36*49
$GPRMC,232731.000,A,5055.8046,N,11134.2234,W,66.45,163.57,180518,,,D*43
$GFDTA,     6.9,98,3.0,10000,2018/05/18 17:15:41, CH4AB-1047,1*42
$GPGGA,232732.000,5055.7869,N,11134.2151,W,2,7,1.27,782.9,M,-18.1,M,0000,0000*6E
$GPGSA,A,3,17,02,25,19,06,12,24,,,,,,1.52,1.27,0.85*05
$GPGSV,4,1,13,12,74,277,51,02,67,193,51,06,61,070,46,19,40,079,44*72
$GPGSV,4,2,13,25,32,307,43,48,28,206,47,24,22,224,40,17,22,084,45*74
$GPGSV,4,3,13,29,04,269,44,05,04,166,42,03,04,022,33,14,02,327,26*7A
$GPGSV,4,4,13,31,02,339,35*44
$GPRMC,232732.000,A,5055.7869,N,11134.2151,W,66.93,163.80,180518,,,D*4B
$GPGGA,232733.000,5055.7692,N,11134.2067,W,2,7,1.27,781.4,M,-18.1,M,0000,0000*6F
$GPGSA,A,3,17,02,25,19,06,12,24,,,,,,1.52,1.27,0.85*05
$GPGSV,4,1,13,12,74,277,51,02,67,193,51,06,61,070,46,19,40,079,44*72
$GPGSV,4,2,13,25,32,307,43,48,28,206,47,24,22,224,41,17,22,084,45*75
$GPGSV,4,3,13,29,04,269,45,05,04,166,50,03,04,022,32,14,02,327,26*79
$GPGSV,4,4,13,31,02,339,34*45
$GPRMC,232733.000,A,5055.7692,N,11134.2067,W,66.71,163.77,180518,,,D*40
$GFDTA,     6.8,97,3.0,9994,2018/05/18 17:15:42, CH4AB-1047,1*73
$GPGGA,232734.000,5055.7517,N,11134.1986,W,2,7,1.27,780.1,M,-18.1,M,0000,0000*67
$GPGSA,A,3,17,02,25,19,06,12,24,,,,,,1.52,1.27,0.85*05
$GPGSV,4,1,13,12,74,277,51,02,67,193,51,06,61,070,46,19,40,079,44*72
$GPGSV,4,2,13,25,32,307,43,48,28,206,47,24,22,224,41,17,22,084,45*75
$GPGSV,4,3,13,29,04,269,44,05,04,166,49,03,04,022,32,14,02,327,27*71
$GPGSV,4,4,13,31,02,339,34*45
$GPRMC,232734.000,A,5055.7517,N,11134.1986,W,66.23,163.36,180518,,,D*4E
$GPGGA,232735.000,5055.7342,N,11134.1904,W,2,7,1.27,779.4,M,-18.1,M,0000,0000*69
$GPGSA,A,3,17,02,25,19,06,12,24,,,,,,2.05,1.27,1.60*0E
$GPGSV,4,1,13,12,74,277,51,02,67,193,51,06,61,070,46,19,40,079,44*72
$GPGSV,4,2,13,25,32,307,43,48,28,206,47,24,22,224,40,17,22,084,45*74
$GPGSV,4,3,13,29,04,269,45,05,04,166,42,03,04,022,34,14,02,327,17*7E
$GPGSV,4,4,13,31,02,339,27*47
$GPRMC,232735.000,A,5055.7342,N,11134.1904,W,66.20,163.43,180518,,,D*42
$GFDBG,  37.7, 676, 10283, 99, 0, 1388,  0.00, 0, 1, 0, 101325, 20*49
$GPGGA,232736.000,5055.7165,N,11134.1819,W,2,7,1.27,779.1,M,-18.1,M,0000,0000*65
$GPGSA,A,3,17,02,25,19,06,12,24,,,,,,2.04,1.27,1.60*0F
$GPGSV,4,1,13,12,74,277,51,02,67,193,51,06,61,070,46,19,40,079,44*72
$GPGSV,4,2,13,25,32,307,43,48,28,206,47,24,22,224,40,17,22,084,45*74
$GPGSV,4,3,13,29,04,269,45,05,04,166,43,03,04,022,33,14,02,327,17*78
$GPGSV,4,4,13,31,02,339,28*48
$GPRMC,232736.000,A,5055.7165,N,11134.1819,W,66.13,163.53,180518,,,D*4A
$GPGGA,232737.000,5055.6990,N,11134.1738,W,2,7,1.27,778.8,M,-18.1,M,0000,0000*63
$GPGSA,A,3,17,02,25,19,06,12,24,,,,,,2.05,1.27,1.61*0F
$GPGSV,4,1,13,12,74,277,51,02,67,193,51,06,61,070,46,19,40,079,45*73
$GPGSV,4,2,13,25,32,307,43,48,28,206,47,24,22,224,40,17,22,084,44*75
$GPGSV,4,3,13,29,04,269,45,05,04,166,45,03,04,022,32,14,02,327,17*7F
$GPGSV,4,4,13,31,02,339,35*44
$GPRMC,232737.000,A,5055.6990,N,11134.1738,W,66.09,163.73,180518,,,D*4D
$GFDTA,     6.8,98,3.0,9936,2018/05/18 17:15:46, CH4AB-1047,1*70
$GPGGA,232738.000,5055.6814,N,11134.1658,W,2,7,1.27,778.9,M,-18.1,M,0000,0000*67
$GPGSA,A,3,17,02,25,19,06,12,24,,,,,,2.04,1.27,1.60*0F
$GPGSV,4,1,13,12,74,277,51,02,67,193,51,06,61,070,46,19,40,079,45*73
$GPGSV,4,2,13,25,32,307,43,48,28,206,47,24,22,224,40,17,22,084,45*74
$GPGSV,4,3,13,29,04,269,45,05,04,166,43,03,04,022,33,14,02,327,18*77
$GPGSV,4,4,13,31,02,339,35*44
$GPRMC,232738.000,A,5055.6814,N,11134.1658,W,65.75,163.95,180518,,,D*48
$GFDTA,     6.8,98,3.0,9930,2018/05/18 17:15:48, CH4AB-1047,1*78
$GPGGA,232739.000,5055.6638,N,11134.1579,W,2,7,1.27,779.1,M,-18.1,M,0000,0000*6F
$GPGSA,A,3,17,02,25,19,06,12,24,,,,,,2.04,1.27,1.60*0F
$GPGSV,4,1,13,12,74,277,51,02,67,193,51,06,61,069,46,19,40,079,45*7B
$GPGSV,4,2,13,25,32,307,43,48,28,206,47,24,22,224,40,17,22,084,45*74
$GPGSV,4,3,13,29,04,269,47,05,04,166,45,03,04,022,33,14,02,327,19*72
$GPGSV,4,4,13,31,02,339,33*42
$GPRMC,232739.000,A,5055.6638,N,11134.1579,W,66.09,163.78,180518,,,D*42
$GPGGA,232740.000,5055.6459,N,11134.1497,W,2,7,1.27,779.6,M,-18.1,M,0000,0000*62
$GPGSA,A,3,17,02,25,19,06,12,24,,,,,,2.04,1.27,1.60*0F
$GPGSV,4,1,13,12,74,277,51,02,67,193,51,06,61,069,46,19,40,079,45*7B
$GPGSV,4,2,13,25,32,307,43,48,28,206,47,24,22,224,41,17,22,084,44*74
$GPGSV,4,3,13,29,04,269,46,05,04,166,46,03,04,022,33,14,02,327,19*70
$GPGSV,4,4,13,31,02,339,34*45
$GPRMC,232740.000,A,5055.6459,N,11134.1497,W,66.35,163.74,180518,,,D*4B
$GFDTA,     6.8,98,3.0,9949,2018/05/18 17:15:50, CH4AB-1047,1*7F
$GPGGA,232741.000,5055.6281,N,11134.1415,W,2,7,1.27,780.7,M,-18.1,M,0000,0000*6D
$GPGSA,A,3,17,02,25,19,06,12,24,,,,,,2.04,1.27,1.60*0F
$GPGSV,4,1,13,12,74,277,51,02,67,193,51,06,61,069,46,19,40,079,45*7B
$GPGSV,4,2,13,25,32,307,43,48,28,206,47,24,22,224,41,17,22,084,44*74
$GPGSV,4,3,13,29,04,269,46,05,04,166,47,03,04,022,33,14,02,327,30*7A
$GPGSV,4,4,13,31,02,339,*42
$GPRMC,232741.000,A,5055.6281,N,11134.1415,W,66.68,163.26,180518,,,D*4C
$GPGGA,232742.000,5055.6102,N,11134.1330,W,2,7,1.27,781.2,M,-18.1,M,0000,0000*62
$GPGSA,A,3,17,02,25,19,06,12,24,,,,,,2.04,1.27,1.60*0F
$GPGSV,4,1,13,12,74,277,51,02,67,193,51,06,61,069,46,19,40,079,45*7B
$GPGSV,4,2,13,25,32,307,43,48,28,206,47,24,22,224,41,17,22,084,44*74
$GPGSV,4,3,13,29,04,269,46,05,04,166,40,03,04,022,33,14,02,327,29*75
$GPGSV,4,4,13,31,02,339,24*44
$GPRMC,232742.000,A,5055.6102,N,11134.1330,W,67.88,163.44,180518,,,D*4C
$GFDTA,     6.7,98,3.0,9872,2018/05/18 17:15:51, CH4AB-1047,1*78
$GPGGA,232743.000,5055.5922,N,11134.1245,W,2,7,1.27,781.0,M,-18.1,M,0000,0000*6B
$GPGSA,A,3,17,02,25,19,06,12,24,,,,,,2.04,1.27,1.60*0F
$GPGSV,4,1,13,12,74,277,51,02,67,193,51,06,61,069,46,19,40,079,44*7A
$GPGSV,4,2,13,25,32,307,43,48,28,206,47,24,22,224,41,17,22,084,43*73
$GPGSV,4,3,13,29,04,269,46,05,04,166,40,03,04,022,32,14,02,327,28*75
$GPGSV,4,4,13,31,02,339,32*43
$GPRMC,232743.000,A,5055.5922,N,11134.1245,W,68.47,163.49,180518,,,D*46
$GFDTA,     6.7,98,3.0,9909,2018/05/18 17:15:53, CH4AB-1047,1*77
$GPGGA,232744.000,5055.5740,N,11134.1161,W,2,7,1.27,780.1,M,-18.1,M,0000,0000*63
$GPGSA,A,3,17,02,25,19,06,12,24,,,,,,1.52,1.27,0.85*05
$GPGSV,4,1,13,12,74,277,51,02,67,193,51,06,61,069,46,19,40,079,44*7A
$GPGSV,4,2,13,25,32,307,43,48,28,206,47,24,22,224,40,17,22,084,43*72
$GPGSV,4,3,13,29,04,269,46,05,04,166,48,03,04,022,31,14,02,327,28*7E
$GPGSV,4,4,13,31,02,339,28*48
$GPRMC,232744.000,A,5055.5740,N,11134.1161,W,68.45,163.98,180518,,,D*40
$GPGGA,232745.000,5055.5558,N,11134.1084,W,2,7,1.27,779.2,M,-18.1,M,0000,0000*66
$GPGSA,A,3,17,02,25,19,06,12,24,,,,,,1.52,1.27,0.85*05
$GPGSV,4,1,13,12,74,276,51,02,67,193,51,06,61,069,47,19,40,079,45*7B
$GPGSV,4,2,13,25,32,307,43,48,28,206,47,24,22,224,39,17,22,084,43*7C
$GPGSV,4,3,13,29,04,269,45,05,04,166,47,03,04,022,31,14,02,327,27*7D
$GPGSV,4,4,13,31,02,339,28*48
$GPRMC,232745.000,A,5055.5558,N,11134.1084,W,68.21,164.88,180518,,,D*44
$GFDTA,     6.7,98,3.0,9888,2018/05/18 17:15:54, CH4AB-1047,1*78
$GPGGA,232746.000,5055.5376,N,11134.1010,W,2,7,1.27,778.2,M,-18.1,M,0000,0000*63
$GPGSA,A,3,17,02,25,19,06,12,24,,,,,,1.52,1.27,0.85*05
$GPGSV,4,1,13,12,74,276,51,02,67,193,51,06,61,069,47,19,40,079,45*7B
$GPGSV,4,2,13,25,32,307,43,48,28,206,47,24,22,224,38,17,22,084,44*7A
$GPGSV,4,3,13,29,04,269,45,05,04,166,37,03,04,022,30,14,02,327,26*7A
$GPGSV,4,4,13,31,02,339,20*40
$GPRMC,232746.000,A,5055.5376,N,11134.1010,W,68.20,165.73,180518,,,D*44
$GFDTA,     6.7,98,3.0,9852,2018/05/18 17:15:56, CH4AB-1047,1*7D
$GPGGA,232747.000,5055.5193,N,11134.0937,W,2,7,1.27,777.4,M,-18.1,M,0000,0000*6F
$GPGSA,A,3,17,02,25,19,06,12,24,,,,,,1.52,1.27,0.85*05
$GPGSV,4,1,13,12,74,276,51,02,67,193,51,06,61,069,47,19,40,079,45*7B
$GPGSV,4,2,13,25,32,307,43,48,28,206,47,24,22,224,38,17,22,084,44*7A
$GPGSV,4,3,13,29,04,269,45,05,04,166,39,03,04,022,31,14,02,327,27*74
$GPGSV,4,4,13,31,02,339,23*43
$GPRMC,232747.000,A,5055.5193,N,11134.0937,W,67.81,166.31,180518,,,D*40
$GPGGA,232748.000,5055.5011,N,11134.0868,W,2,7,1.27,776.8,M,-18.1,M,0000,0000*6D
$GPGSA,A,3,17,02,25,19,06,12,24,,,,,,2.04,1.27,1.60*0F
$GPGSV,4,1,13,12,74,276,51,02,67,193,51,06,61,069,47,19,40,079,45*7B
$GPGSV,4,2,13,25,32,307,43,48,28,206,47,24,22,224,39,17,22,084,44*7B
$GPGSV,4,3,13,29,04,269,46,05,04,166,39,03,04,022,32,14,02,327,27*74
$GPGSV,4,4,13,31,02,339,29*49
$GPRMC,232748.000,A,5055.5011,N,11134.0868,W,67.42,166.63,180518,,,D*47
$GFDTA,     6.8,98,3.0,9864,2018/05/18 17:15:58, CH4AB-1047,1*79
$GPGGA,232749.000,5055.4830,N,11134.0801,W,2,7,1.27,776.3,M,-18.1,M,0000,0000*62
$GPGSA,A,3,17,02,25,19,06,12,24,,,,,,2.04,1.27,1.60*0F
$GPGSV,4,1,13,12,74,276,51,02,67,193,51,06,61,069,47,19,40,079,45*7B
$GPGSV,4,2,13,25,32,307,43,48,28,206,47,24,22,224,40,17,22,084,44*75
$GPGSV,4,3,13,29,04,269,47,05,04,166,41,03,04,022,31,14,02,327,28*76
$GPGSV,4,4,13,31,02,339,30*41
$GPRMC,232749.000,A,5055.4830,N,11134.0801,W,67.03,166.60,180518,,,D*45
$GPGGA,232750.000,5055.4649,N,11134.0732,W,2,7,1.27,776.0,M,-18.1,M,0000,0000*66
$GPGSA,A,3,17,02,25,19,06,12,24,,,,,,2.04,1.27,1.60*0F
$GPGSV,4,1,13,12,74,276,51,02,67,193,51,06,61,069,47,19,40,079,45*7B
$GPGSV,4,2,13,25,32,307,43,48,28,206,47,24,22,224,40,17,21,084,45*77
$GPGSV,4,3,13,29,04,269,47,05,04,166,41,03,04,022,29,14,02,327,26*71
$GPGSV,4,4,13,31,02,339,30*41
$GPRMC,232750.000,A,5055.4649,N,11134.0732,W,66.95,166.14,180518,,,D*4F
$GFDTA,     6.8,98,3.0,9948,2018/05/18 17:15:59, CH4AB-1047,1*77
$GPGGA,232751.000,5055.4468,N,11134.0660,W,2,7,1.27,775.9,M,-18.1,M,0000,0000*6A
$GPGSA,A,3,17,02,25,19,06,12,24,,,,,,2.04,1.27,1.60*0F
$GPGSV,4,1,13,12,74,276,51,02,67,193,51,06,61,069,46,19,40,079,44*7B
$GPGSV,4,2,13,25,32,307,43,48,28,206,47,24,22,224,40,17,21,084,46*74
$GPGSV,4,3,13,29,04,269,48,05,04,166,42,03,04,022,30,14,02,327,25*76
$GPGSV,4,4,13,31,02,339,*42
$GPRMC,232751.000,A,5055.4468,N,11134.0660,W,67.28,165.68,180518,,,D*46
$GFDTA,     6.8,98,3.0,9874,2018/05/18 17:16:01, CH4AB-1047,1*77
$GPGGA,232752.000,5055.4287,N,11134.0585,W,2,7,1.27,775.9,M,-18.1,M,0000,0000*66
$GPGSA,A,3,17,02,25,19,06,12,24,,,,,,2.04,1.27,1.60*0F
$GPGSV,4,1,13,12,74,276,51,02,67,193,51,06,61,069,46,19,39,079,44*75
$GPGSV,4,2,13,25,32,307,43,48,28,206,47,24,22,224,40,17,21,084,46*74
$GPGSV,4,3,13,29,04,269,48,05,04,166,43,03,04,022,29,14,02,327,26*7C
$GPGSV,4,4,13,31,02,339,30*41
$GPRMC,232752.000,A,5055.4287,N,11134.0585,W,67.69,164.93,180518,,,D*4A
$GPGGA,232753.000,5055.4105,N,11134.0507,W,2,7,1.27,775.6,M,-18.1,M,0000,0000*6B
$GPGSA,A,3,17,02,25,19,06,12,24,,,,,,2.04,1.27,1.60*0F
$GPGSV,4,1,13,12,74,276,51,02,67,193,51,06,61,069,46,19,39,079,44*75
$GPGSV,4,2,13,25,32,307,43,48,28,206,47,24,22,224,40,17,21,084,46*74
$GPGSV,4,3,13,29,04,269,48,05,04,166,42,03,04,022,30,14,02,327,27*74
$GPGSV,4,4,13,31,02,339,32*43
$GPRMC,232753.000,A,5055.4105,N,11134.0507,W,67.48,164.18,180518,,,D*48
$GFDTA,     6.8,98,3.0,9837,2018/05/18 17:16:02, CH4AB-1047,1*73
$GPGGA,232754.000,5055.3923,N,11134.0422,W,2,7,1.27,775.4,M,-18.1,M,0000,0000*63
$GPGSA,A,3,17,02,25,19,06,12,24,,,,,,2.04,1.27,1.60*0F
$GPGSV,4,1,13,12,74,276,51,02,67,193,51,06,61,069,46,19,39,079,44*75
$GPGSV,4,2,13,25,32,307,43,48,28,206,47,24,22,224,40,17,21,084,46*74
$GPGSV,4,3,13,29,04,269,47,05,04,166,44,03,04,022,32,14,02,327,27*7F
$GPGSV,4,4,13,31,02,339,31*40
$GPRMC,232754.000,A,5055.3923,N,11134.0422,W,67.24,163.60,180518,,,D*40
$GFDTA,     6.7,98,3.0,9885,2018/05/18 17:16:04, CH4AB-1047,1*73
$GPGGA,232755.000,5055.3745,N,11134.0336,W,2,7,1.27,775.2,M,-18.1,M,0000,0000*68
$GPGSA,A,3,17,02,25,19,06,12,24,,,,,,2.04,1.27,1.60*0F
$GPGSV,4,1,13,12,74,276,51,02,67,193,51,06,61,069,46,19,39,079,44*75
$GPGSV,4,2,13,25,32,307,43,48,28,206,47,24,22,224,40,17,21,084,46*74
$GPGSV,4,3,13,29,04,269,46,05,04,166,44,03,04,022,33,14,02,327,27*7F
$GPGSV,4,4,13,31,02,339,36*47
$GPRMC,232755.000,A,5055.3745,N,11134.0336,W,67.20,163.28,180518,,,D*45
$GPGGA,232756.000,5055.3567,N,11134.0251,W,2,7,1.27,774.8,M,-18.1,M,0000,0000*62
$GPGSA,A,3,17,02,25,19,06,12,24,,,,,,2.04,1.27,1.60*0F
$GPGSV,4,1,13,12,74,276,51,02,67,193,51,06,61,069,46,19,39,079,44*75
$GPGSV,4,2,13,25,32,307,43,48,28,206,47,24,22,224,39,17,21,084,45*79
$GPGSV,4,3,13,29,04,269,45,05,04,166,42,03,04,022,33,14,02,327,27*7A
$GPGSV,4,4,13,31,02,339,27*47
$GPRMC,232756.000,A,5055.3567,N,11134.0251,W,67.03,163.37,180518,,,D*4B
$GFDTA,     6.7,98,3.0,9847,2018/05/18 17:16:05, CH4AB-1047,1*7C
$GPGGA,232757.000,5055.3388,N,11134.0169,W,2,7,1.27,774.5,M,-18.1,M,0000,0000*61
$GPGSA,A,3,17,02,25,19,06,12,24,,,,,,2.04,1.27,1.60*0F
$GPGSV,4,1,13,12,74,276,51,02,67,193,51,06,61,069,46,19,39,079,45*74
$GPGSV,4,2,13,25,32,307,43,48,28,206,47,24,22,224,38,17,21,084,45*78
$GPGSV,4,3,13,29,04,269,46,05,04,166,42,03,04,022,34,14,02,327,26*7F
$GPGSV,4,4,13,31,02,339,19*4A
$GPRMC,232757.000,A,5055.3388,N,11134.0169,W,67.01,163.87,180518,,,D*4C
$GFDTA,     6.8,98,3.0,9839,2018/05/18 17:16:07, CH4AB-1047,1*78
$GPGGA,232758.000,5055.3211,N,11134.0087,W,2,7,1.27,774.5,M,-18.1,M,0000,0000*6E
$GPGSA,A,3,17,02,25,19,06,12,24,,,,,,2.04,1.27,1.60*0F
$GPGSV,4,1,13,12,74,276,51,02,67,193,51,06,61,069,47,19,39,079,44*74
$GPGSV,4,2,13,25,32,307,43,48,28,206,47,24,22,224,38,17,21,084,47*7A
$GPGSV,4,3,13,29,04,269,44,05,04,166,43,03,04,022,34,14,02,327,19*70
$GPGSV,4,4,13,31,02,339,26*46
$GPRMC,232758.000,A,5055.3211,N,11134.0087,W,66.58,163.85,180518,,,D*4C
$GPGGA,232759.000,5055.3035,N,11134.0004,W,2,7,1.27,774.5,M,-18.1,M,0000,0000*60
$GPGSA,A,3,17,02,25,19,06,12,24,,,,,,2.04,1.27,1.60*0F
$GPGSV,4,1,13,12,74,276,51,02,67,193,51,06,61,069,48,19,39,079,44*7B
$GPGSV,4,2,13,25,32,307,43,48,28,206,46,24,22,224,39,17,21,084,47*7A
$GPGSV,4,3,13,29,04,269,44,05,04,166,43,03,04,022,42,14,02,327,20*7B
$GPGSV,4,4,13,31,02,339,26*46
$GPRMC,232759.000,A,5055.3035,N,11134.0004,W,66.52,163.02,180518,,,D*47
$GFDTA,     6.8,98,3.0,9876,2018/05/18 17:16:09, CH4AB-1047,1*7D
$GPGGA,232800.000,5055.2859,N,11133.9912,W,2,7,1.27,774.3,M,-18.1,M,0000,0000*66
$GPGSA,A,3,17,02,25,19,06,12,24,,,,,,2.04,1.27,1.60*0F
$GPGSV,4,1,13,12,74,276,51,02,67,193,51,06,61,069,48,19,39,079,45*7A
$GPGSV,4,2,13,25,32,307,43,48,28,206,45,24,22,224,39,17,21,084,47*79
$GPGSV,4,3,13,29,04,269,44,05,04,166,34,03,04,022,41,14,02,327,20*78
$GPGSV,4,4,13,31,02,339,26*46
$GPRMC,232800.000,A,5055.2859,N,11133.9912,W,66.45,160.68,180518,,,D*4E
$GPGGA,232801.000,5055.2687,N,11133.9806,W,2,7,1.27,774.2,M,-18.1,M,0000,0000*6F
$GPGSA,A,3,17,02,25,19,06,12,24,,,,,,2.04,1.27,1.60*0F
$GPGSV,4,1,13,12,74,276,51,02,67,193,51,06,61,069,48,19,39,079,45*7A
$GPGSV,4,2,13,25,32,307,43,48,28,206,45,24,22,224,39,17,21,084,47*79
$GPGSV,4,3,13,29,04,269,43,05,04,166,45,03,04,022,39,14,02,327,21*77
$GPGSV,4,4,13,31,02,339,26*46
$GPRMC,232801.000,A,5055.2687,N,11133.9806,W,66.38,157.53,180518,,,D*40
$GFDTA,     6.8,98,3.0,9935,2018/05/18 17:16:10, CH4AB-1047,1*73
$GPGGA,232802.000,5055.2518,N,11133.9689,W,2,7,1.27,773.8,M,-18.1,M,0000,0000*6D
$GPGSA,A,3,17,02,25,19,06,12,24,,,,,,2.04,1.27,1.60*0F
$GPGSV,4,1,13,12,74,276,51,02,67,193,51,06,61,069,48,19,39,079,45*7A
$GPGSV,4,2,13,25,32,307,43,48,28,206,45,24,22,224,40,17,21,084,47*77
$GPGSV,4,3,13,29,05,269,44,05,04,166,44,03,04,022,40,14,02,327,21*7E
$GPGSV,4,4,13,31,02,339,33*42
$GPRMC,232802.000,A,5055.2518,N,11133.9689,W,66.99,155.91,180518,,,D*48
$GFDTA,     6.7,98,3.0,9947,2018/05/18 17:16:12, CH4AB-1047,1*7B
$GPGGA,232803.000,5055.2350,N,11133.9565,W,2,8,1.22,773.0,M,-18.1,M,0000,0000*65
$GPGSA,A,3,17,02,25,19,06,12,24,29,,,,,1.76,1.22,1.27*04
$GPGSV,4,1,13,12,74,276,51,02,67,193,51,06,61,069,48,19,39,079,44*7B
$GPGSV,4,2,13,25,32,307,43,48,28,206,45,24,22,224,40,17,21,084,47*77
$GPGSV,4,3,13,29,05,269,43,05,04,166,44,03,04,022,33,14,02,327,21*7D
$GPGSV,4,4,13,31,02,339,34*45
$GPRMC,232803.000,A,5055.2350,N,11133.9565,W,67.64,154.93,180518,,,D*42
$GPGGA,232804.000,5055.2181,N,11133.9436,W,2,8,1.22,772.4,M,-18.1,M,0000,0000*6E
$GPGSA,A,3,17,02,25,19,06,12,24,29,,,,,1.76,1.22,1.27*04
$GPGSV,4,1,13,12,74,276,51,02,67,193,51,06,61,069,48,19,39,079,44*7B
$GPGSV,4,2,13,25,32,307,43,48,28,206,45,24,22,224,40,17,21,084,48*78
$GPGSV,4,3,13,29,05,269,43,05,04,166,44,03,04,022,34,14,02,327,21*7A
$GPGSV,4,4,13,31,02,339,34*45
$GPRMC,232804.000,A,5055.2181,N,11133.9436,W,67.85,153.69,180518,,,D*41
$GFDTA,     6.7,98,3.0,9877,2018/05/18 17:16:13, CH4AB-1047,1*78
$GPGGA,232805.000,5055.2015,N,11133.9302,W,2,8,1.22,771.3,M,-18.1,M,0000,0000*67
$GPGSA,A,3,17,02,25,19,06,12,24,29,,,,,1.76,1.22,1.27*04
$GPGSV,4,1,13,12,74,276,51,02,67,193,51,06,61,069,47,19,39,079,45*75
$GPGSV,4,2,13,25,32,307,42,48,28,206,45,24,22,224,40,17,21,084,48*79
$GPGSV,4,3,13,29,05,269,43,05,04,166,45,03,04,022,36,14,02,327,22*7A
$GPGSV,4,4,13,31,02,339,34*45
$GPRMC,232805.000,A,5055.2015,N,11133.9302,W,67.44,153.45,180518,,,D*4F
$GFDTA,     6.7,98,3.0,9776,2018/05/18 17:16:15, CH4AB-1047,1*70
$GPGGA,232806.000,5055.1850,N,11133.9169,W,2,8,1.22,770.1,M,-18.1,M,0000,0000*62
$GPGSA,A,3,17,02,25,19,06,12,24,29,,,,,1.76,1.22,1.27*04
$GPGSV,4,1,13,12,74,276,51,02,67,193,51,06,61,069,47,19,39,079,46*76
$GPGSV,4,2,13,25,32,307,41,48,28,206,45,24,22,224,41,17,21,084,48*7B
$GPGSV,4,3,13,29,05,269,44,05,04,166,37,03,04,022,36,14,02,327,30*7B
$GPGSV,4,4,13,31,02,339,24*44
$GPRMC,232806.000,A,5055.1850,N,11133.9169,W,67.40,153.47,180518,,,D*4F
$GPGGA,232807.000,5055.1683,N,11133.9036,W,2,8,1.22,768.9,M,-18.1,M,0000,0000*69
$GPGSA,A,3,17,02,25,19,06,12,24,29,,,,,1.76,1.22,1.27*04
$GPGSV,4,1,13,12,74,276,51,02,67,193,51,06,61,069,47,19,39,079,46*76
$GPGSV,4,2,13,25,32,307,41,48,28,206,45,24,22,224,41,17,21,084,49*7A
$GPGSV,4,3,13,29,05,269,45,05,04,166,48,03,04,022,38,14,02,327,22*7F
$GPGSV,4,4,13,31,02,339,26*46
$GPRMC,232807.000,A,5055.1683,N,11133.9036,W,67.42,153.38,180518,,,D*4F
$GFDTA,     6.8,98,3.0,9827,2018/05/18 17:16:17, CH4AB-1047,1*76
$GPGGA,232808.000,5055.1517,N,11133.8903,W,2,8,1.22,767.5,M,-18.1,M,0000,0000*65
$GPGSA,A,3,17,02,25,19,06,12,24,29,,,,,1.76,1.22,1.27*04
$GPGSV,4,1,13,12,74,276,51,02,67,193,51,06,61,069,47,19,39,079,46*76
$GPGSV,4,2,13,25,32,307,41,48,28,206,45,24,22,224,41,17,21,084,49*7A
$GPGSV,4,3,13,29,05,269,45,05,04,166,48,03,04,022,39,14,02,327,21*7D
$GPGSV,4,4,13,31,02,339,28*48
$GPRMC,232808.000,A,5055.1517,N,11133.8903,W,67.46,153.53,180518,,,D*49
$GPGGA,232809.000,5055.1351,N,11133.8771,W,2,8,1.22,766.1,M,-18.1,M,0000,0000*6E
$GPGSA,A,3,17,02,25,19,06,12,24,29,,,,,1.76,1.22,1.27*04
$GPGSV,4,1,13,12,74,276,51,02,67,193,51,06,61,069,47,19,39,079,46*76
$GPGSV,4,2,13,25,32,307,41,48,28,206,45,24,22,224,41,17,21,084,48*7B
$GPGSV,4,3,13,29,05,269,45,05,04,166,48,03,04,022,40,14,02,327,22*70
$GPGSV,4,4,13,31,02,339,28*48
$GPRMC,232809.000,A,5055.1351,N,11133.8771,W,67.46,153.56,180518,,,D*42
$GFDTA,     6.8,98,3.0,9879,2018/05/18 17:16:18, CH4AB-1047,1*72
$GPGGA,232810.000,5055.1184,N,11133.8640,W,2,8,1.22,765.0,M,-18.1,M,0000,0000*6D
$GPGSA,A,3,17,02,25,19,06,12,24,29,,,,,1.76,1.22,1.27*04
$GPGSV,4,1,13,12,74,276,51,02,67,193,51,06,61,069,47,19,39,079,46*76
$GPGSV,4,2,13,25,32,307,41,48,28,206,45,24,22,224,41,17,21,084,48*7B
$GPGSV,4,3,13,29,05,269,46,05,05,166,46,03,04,022,39,14,02,327,22*72
$GPGSV,4,4,13,31,02,339,28*48
$GPRMC,232810.000,A,5055.1184,N,11133.8640,W,67.22,153.58,180518,,,D*4F
$GFDTA,     6.9,98,3.0,9800,2018/05/18 17:16:20, CH4AB-1047,1*76
$GPGGA,232811.000,5055.1020,N,11133.8511,W,2,9,0.99,764.1,M,-18.1,M,0000,0000*64
$GPGSA,A,3,17,05,02,25,19,06,12,24,29,,,,1.51,0.99,1.15*04
$GPGSV,4,1,13,12,74,276,51,02,67,193,51,06,61,069,47,19,39,079,46*76
$GPGSV,4,2,13,25,32,307,41,48,28,206,45,24,22,224,41,17,21,084,49*7A
$GPGSV,4,3,13,29,05,269,46,05,05,166,45,03,04,022,38,14,02,327,22*70
$GPGSV,4,4,13,31,02,339,30*41
$GPRMC,232811.000,A,5055.1020,N,11133.8511,W,67.19,153.71,180518,,,D*45
$GPGGA,232812.000,5055.0855,N,11133.8380,W,2,9,0.98,762.9,M,-18.1,M,0000,0000*6D
$GPGSA,A,3,17,05,02,25,19,06,12,24,29,,,,1.51,0.98,1.15*05
$GPGSV,4,1,13,12,74,276,51,02,67,193,51,06,61,069,47,19,39,079,46*76
$GPGSV,4,2,13,25,32,307,41,48,28,206,45,24,22,224,41,17,21,084,49*7A
$GPGSV,4,3,13,29,05,269,47,05,05,166,45,03,04,022,39,14,02,327,29*7B
$GPGSV,4,4,13,31,02,339,30*41
$GPRMC,232812.000,A,5055.0855,N,11133.8380,W,67.26,153.92,180518,,,D*42
$GFDTA,     6.9,98,3.0,9719,2018/05/18 17:16:21, CH4AB-1047,1*70
$GPGGA,232813.000,5055.0689,N,11133.8253,W,2,9,0.99,762.4,M,-18.1,M,0000,0000*60
$GPGSA,A,3,17,05,02,25,19,06,12,24,29,,,,1.51,0.99,1.15*04
$GPGSV,4,1,13,12,74,276,51,02,67,193,51,06,61,069,47,19,39,079,46*76
